업체명,사업장구분,소재지도로명주소,소재지지번주소,위도,경도,차고지도로명주소,차고지지번주소,보유차고지수용능력,자동차총보유대수,승용차보유대수,승합차보유대수,전기승용자동차보유대수,전기승합자동차보유대수,경차요금,소형차요금,중형차요금,대형차요금,승합차요금,레저용차요금,수입차요금,평일운영시작시각,평일운영종료시각,주말운영시작시각,주말운영종료시각,공휴일운영시작시각,공휴일운영종료시각,휴무일,홈페이지주소,대표자명,전화번호,데이터기준일자,제공기관코드,제공기관명
㈜이지웨이렌트카,주사업장,"서울특별시 마포구 마포대로 33, 21층 오-211호(도화동, 마포한화오벨리스크)",,37.5399836153,126.9454300000,"강서구 마곡중앙6로 16, 3층(마곡동, 마곡지엠타워)양천구 신월동 21-1 신월주차장영등포구 국제금융로2길 37(여의도동) 에스트레뉴 주차장",,,154,152,2,0,0,,,,,,,,00:00,24:00,,,,,,,,02-701-1470,2020-01-28,3130000,서울특별시 마포구
㈜플러스원렌트카,주사업장,"서울특별시 마포구 마포대로 33, 제오동 1706호(도화동, 한화오벨리스크)",,37.5399836153,126.9454520000,"영등포구 국제금융로2길 37(여의도동) 에스트레뉴 주차장성북구 오패산로10길 30강서구 마곡중앙6로 16 (마곡동, 마곡지엠지타워)",,,120,120,0,0,0,,,,,,,,00:00,24:00,,,,,,,,02-597-8361,2020-01-28,3130000,서울특별시 마포구
우리렌트카,주사업장,"경상남도 창원시 성산구 연덕로184번길 28, 공단쇼핑상가2층 29호",경상남도 창원시 성산구 내동 456-12,35.2175530,128.6685580,경상남도 창원시 마산합포구 진전면 호산정달로 91,경상남도 창원시 마산합포구 진전면 오서리 49,,32,24,8,0,0,70000,,110000,210000,,,,09:00,18:00,09:00,18:00,,,,,이명삼,070-4210-3546,2020-01-03,5670000,경상남도 창원시
초이스렌트카(주) 가평영업소,영업소,경기도 가평군 청평면 경춘로 722 청수아파트 이동 청수상가 2층 206호,,37.7321033,127.4107736,경기도 가평군 청평면 경춘로 722 청수아파트 이동 청수상가 2층 206호,경기도 남양주시 진접읍 금곡리 1082번지 랜드타워 3층,,6,6,0,0,0,,,,,,,,09:00,20:00,,,,,,,,031-585-6770,2019-09-17,4160000,경기도 가평군
(주)쏘카 가평영업소(무인영업소-차고지),영업소,경기도 가평군 가평읍 호반로 2585,,37.8166627274,127.5144156780,경기도 가평군 가평읍 호반로 2585,경기도 가평군 가평읍 달전리 405-15,,3,3,0,0,0,,,,,,,,00:00,23:59,,,,,,,,070-4352-2110,2019-09-17,4160000,경기도 가평군
㈜나나렌트카,주사업장,"경기도 부천시 부천로 147번길 34, 101호(심곡동, 삼성파크빌)",,37.4977974492,126.783928403,경기도 부천시 상동로 84,,97,97,83,14,0,0,0,0,70000,0,110000,0,0,09:00,21:00,09:00,21:00,09:00,21:00,없음,,방혁제,032-668-6633,2019-09-10,3860000,경기도 부천시
㈜세븐렌트카,주사업장,"경기도 부천시 석천로442번길 56(삼정동,선라이즈골프크럽)",,37.527333,126.772397,경기도 부천시 상동 545-13(상록복합타운),,135,135,133,2,0,0,57950,71000,107000,173000,142000,0,0,09:00,18:00,09:00,18:00,09:00,18:00,없음,,"진성진, 천성철",032-667-4040,2019-09-10,3860000,경기도 부천시
㈜하나렌트카,주사업장,경기도 부천시 신흥로 393번길 10(내동),,37.518799,126.774735,경기도 부천시 신흥로413번길 18 외,,157,157,150,7,0,0,45000,60000,80000,115000,115000,0,0,08:30,20:30,08:30,20:30,08:30,20:30,없음,,김용진,032-675-1471,2019-09-10,3860000,경기도 부천시
㈜카이스트,주사업장,"경기도 부천시 옥산로 7, B동234호(중동,리첸시아)",,37.495525,126.779396,경기도 부천시 상동 545-13 (상록복합타워 상록주차장),,72,72,72,0,0,0,66500,70000,119000,186900,157500,0,0,08:30,18:30,08:30,17:00,08:30,17:00,없음,,서영수,032-329-1544,2019-09-10,3860000,경기도 부천시
㈜에이스렌트카,주사업장,경기도 부천시 중동로 107,,37.4917985689,126.7659619141,서울특별시 양천구 곰달래로3길13(신월동)마을마당공영주차장 외,,171,171,166,5,0,0,50000,60000,80000,120000,120000,0,0,09:00,18:00,09:00,18:00,09:00,18:00,없음,,조근배,032-613-3303,2019-09-10,3860000,경기도 부천시
㈜케이렌트카,주사업장,경기도 부천시 삼작로 265,,37.5202524,126.7910101,경기도 부천시 상동로 84 외,,175,175,168,7,0,0,60000,70000,80000,130000,130000,0,0,09:00,20:00,09:00,20:00,09:00,20:00,없음,,이상래,032-676-8340,2019-09-10,3860000,경기도 부천시
㈜마이카렌트카,주사업장,경기도 부천시 길주로77번길 55-25,,37.5071995,126.750689,서울특별시 강서구 마곡서로 101(동익드미라벨 주차타워),,50,50,49,1,0,0,40000,50000,60000,80000,100000,0,150000,09:00,18:00,00:00,00:00,00:00,00:00,없음,,김민곤,032-324-8885,2019-09-10,3860000,경기도 부천시
㈜중호렌트카,주사업장,경기도 부천시 길주로77번길55-25,,37.5071995,126.750689,경기도 부천시 길주로77번길55-25,,165,165,156,9,0,0,55000,65000,80000,135000,135000,0,200000,09:00,18:00,00:00,00:00,00:00,00:00,없음,,김영일,032-342-7008,2019-09-10,3860000,경기도 부천시
㈜신한렌터카,주사업장,경기도 부천시 송내대로39번길 51,,37.487187,126.750407,경기도 부천시 중동로254번길 90 외,,85,85,81,4,0,0,0,60000,75000,0,100000,0,0,09:00,20:00,09:00,20:00,09:00,20:00,없음,,김세훈,032-667-3506,2019-09-10,3860000,경기도 부천시
㈜피제이렌트카,주사업장,경기도 부천시 상동로 84,,37.504474,126.753470,경기도 부천시  상동로 84 외,,329,329,316,13,0,0,50000,55000,70000,115000,120000,0,200000,09:00,18:00,09:00,18:00,09:00,18:00,없음,,팽중원,032-322-7936,2019-09-10,3860000,경기도 부천시
세븐렌탈㈜,주사업장,경기도 부천시 부일로205번길 26,,37.489565,126.753272,경기도 부천시 중동로 254번길90 외,,181,181,169,12,0,0,50000,60000,70000,110000,120000,0,500000,09:00,20:00,09:00,20:00,09:00,20:00,없음,,권중성,070-7644-7777,2019-09-10,3860000,경기도 부천시
(유)엠렌트카,주사업장,"경기도 부천시 송내대로33번길 48-5, 1층(송내동)",,37.486917,126.750533,"경기도 부천시 길주로77번길 55-25, 10층(상동, 대야복합타워)",,50,50,50,0,0,0,50000,60000,70000,90000,110000,0,0,09:00,22:00,09:00,22:00,00:00,00:00,없음,,한장한,031-446-1469,2019-09-10,3860000,경기도 부천시
㈜한빛이엔지,주사업장,"경기도 부천시 부일로191번길 35, 상가동 지층9호(상동,반달마을)",,37.4902183582,126.7510500419,"경기도 부천시 중동로254번길 90,(공영주차장 제4호)",,54,54,52,2,0,0,40000,50000,60000,90000,110000,0,0,08:30,21:00,08:30,21:00,08:30,21:00,없음,,김병환,032-664-8890,2019-09-10,3860000,경기도 부천시
㈜한기련렌트카,주사업장,"경기도 부천시 신흥로413번길18,3층",,37.5206360,126.7743758,경기도 부천시 원미구 상동로 84,,96,96,96,0,0,0,95000,125000,180000,310000,320000,0,0,09:00,09:00,09:00,09:00,09:00,09:00,없음,,김영진,070-7397-6001,2019-09-10,3860000,경기도 부천시
㈜씨앤피렌터카,주사업장,"경기도 부천시 송내대로388,200동 406호(약대동 부천테크노파크2단지)",,37.516950,126.7624671,서울특별시 양천구 가로공원로 72여울공영주차장(신월3동),,74,74,71,3,0,0,30000,50000,70000,100000,120000,0,0,09:00,18:00,09:00,18:00,09:00,18:00,없음,,함기석,1661-2202,2019-09-10,3860000,경기도 부천시
에스제이,주사업장,경기도 광명시 오리로387,경기도 광명시 소하동909-39,37.4378576,126.8791601,경기도 광명시 범안로966번길6,경기도 광명시 하안동 304-1,,54,47,7,0,0,,60000,70000,90000,120000,,,09:00,20:30,09:00,20:30,09:00,20:30,연중무휴,www.skrentacar.co.kr,양재정,1577-4567,2019-09-09,3900000,경기도 광명시
선경엔씨에스,주사업장,경기도 광명시 시청로34,경기도 광명시 철산동225-2,37.4797319,126.8641492,,경기도 광명시 일직동 516-1,,58,55,3,0,0,40000,40000,50000,100000,100000,,,09:00,19:00,09:00,19:00,09:00,19:00,연중무휴,www.skncsrentcar.modoo.at,양광식,02-2683-5522,2019-09-09,3900000,경기도 광명시
케이헨트카,주사업장,경기도 광명시 오리로651번길6,경기도 광명시 하안동303-1,37.4594068,126.8761562,경기도 광명시 오리로651번길6,경기도 광명시 하안동 303-1,,151,139,12,0,0,40000,50000,70000,90000,100000,,,09:30,18:30,09:30,18:30,09:30,18:30,연중무휴,없음,강정순,02-899-1999,2019-09-09,3900000,경기도 광명시
지렌트카,주사업장,경기도 광명시 범안로992,경기도 광명시 하안동301-4,37.4591492,126.8745009,,경기도 광명시 노온사동 93-1,,254,241,13,0,0,50000,60000,70000,90000,130000,,,09:00,19:00,09:00,19:00,09:00,19:00,연중무휴,www.grentcar.co.kr,강석식,02-898-1858,2019-09-09,3900000,경기도 광명시
㈜국민렌트카,주사업장,"경기도 안양시 동안구 경수대로 583, 2층 (호계동)",경기도 안양시 동안구 호계동 986-1,37.3745344,126.9566710,0,0,70,55,54,1,0,0,0,0,0,0,0,0,0,00:00,00:00,00:00,00:00,00:00,00:00,0,0,0,031-458-1622,2019-09-03,3830000,경기도 안양시
㈜뉴삼성렌트카,주사업장,"경기도 안산시 단원구 광덕대로193, 106호(고잔동)","경기도 안산시 단원구 고잔동 706-1, 신양타운 106호",37.31382596,126.829346,경기도 안산시 단원구 광덕서로 106(고잔동),경기도 안산시 단원구 고잔동 704,,26,23,3,0,0,,,,,,,,09:00,18:00,,,,,,,,031-406-5300,2020-03-02,3930000,경기도 안산시
㈜뉴삼성렌트카안산영업소,영업소,"경기도 안산시 단원구 풍전로 37-24, 319-201(원곡동,트리플렉스)","경기도 안산시 단원구 원곡동 994-8, 트리플렉스 319-201",37.32623797,126.7887668,경기도 안산시 단원구 광덕3로 135-18,경기도 안산시 단원구 고잔동 705-11 월드타워,,15,15,0,0,0,,,,,,,,09:00,18:00,,,,,,,,031-493-7576,2020-03-02,3930000,경기도 안산시
㈜뉴삼성렌트카상록영업소,영업소,"경기도 안산시 상록구 항가울로19, 102호(사동)","경기도 안산시 상록구 사동 1424-10, 102호",37.283717,126.847118,경기도 안산시 단원구 광덕3로 135-18,경기도 안산시 단원구 고잔동 705-11 월드타워,,10,10,0,0,0,,,,,,,,09:00,18:00,,,,,,,,031-406-5300,2020-03-02,3930000,경기도 안산시
㈜와이드,주사업장,"경기도 안산시 상록구 영화4길 21, 102호(사동)",경기도 안산시 상록구 사동 1473-10,37.2793751866,126.8516772493,경기도 안산시 단원구 광덕서로 106,경기도 안산시 단원구 고잔동 704 화랑주차타워,,21,20,1,0,0,,,,,,,,09:00,18:00,,,,,,,,031-493-1152,2020-03-02,3930000,경기도 안산시
㈜에이치디렌트카,주사업장,"경기도 안산시 상록구 용신로154-1, 201호(사동)","경기도 안산시 상록구 사동 1576-2, 201호",37.302927,126.839476,경기도 안산시 단원구 광덕2로 156-11,경기도 안산시 단원구 고잔동 716-6MK주차타워,,99,96,3,0,0,,,,,,,,09:00,18:00,,,,,,,,031-416-7400,2020-03-02,3930000,경기도 안산시
㈜아이제이렌트카,주사업장,"경기도 안산시 단원구 중앙대로 855, 109호(고잔동,한양빌딩)","경기도 안산시 단원구 고잔동 531-5, 한양빌딩 109호",37.317422,126.831485,경기도 안산시 단원구 신각길 95,경기도 안산시 단원구 고잔동 705-1번지,,112,99,13,0,0,,,,,,,,09:00,18:00,,,,,,,,031-402-1753,2020-03-02,3930000,경기도 안산시
㈜비엠렌터카,주사업장,"경기도 안산시 상록구 선진안길 131, 103호(사동)","경기도 안산시 상록구 사동 1486-5, 호성자동차정비(주)",37.280618,126.848748,경기도 시흥시 산기대학로 7,경기도 시흥시 정왕동 1290-17(주)명성이엔티,,37,32,5,0,0,,,,,,,,09:00,18:00,,,,,,,,031-409-3880,2020-03-02,3930000,경기도 안산시
(유)현대렌트카,주사업장,전라남도 순천시 팔마로 25(장천동),,34.9467619675,127.4911867,전라남도 순천시 팔마로 25(장천동),,221.07,37,28,9,0,0,,,,,,,,00:00,23:59,,,,,,,,061-745-4003,2020-02-24,4820000,전라남도 순천시
㈜선경엔씨에스렌트카,주사업장,"경기도 안산시 단원구 고잔로 54, 502호","경기도 안산시 단원구 고잔동 529-1, 에이스타워 502호",37.319008,126.832132,경기도 시흥시 오이도로 21,경기도 시흥시 정왕동 2210STEEL LAND,,126,118,8,0,0,,,,,,,,09:00,18:00,,,,,,,,031-487-0001,2020-03-02,3930000,경기도 안산시
㈜고고렌트카,주사업장,"경기도 안산시 상록구 매화로2길 35, 102호(일동)","경기도 안산시 상록구 일동 661-10, 102호",37.303742,126.8636983966,경기도 안산시 단원구 신길로1길 10,경기도 안산시 단원구 신길동 1631,,23,22,1,0,0,,,,,,,,09:00,18:00,,,,,,,,031-417-7799,2020-03-02,3930000,경기도 안산시
에스디서비스㈜,주사업장,충청남도 천안시 서북구 서부대로 602 (성정동),충청남도 천안시 서북구 성정동 895,36.8208451183,127.1319971724,충청남도 천안시 서북구 서부대로 602 (성정동),충청남도 천안시 서북구 성정동 895,,52,51,1,0,0,,,,,,,,00:00,00:00,00:00,00:00,00:00,00:00,,,,041-579-7473,2019-09-26,4490000,충청남도 천안시
지에스렌트카㈜,주사업장,충청남도 천안시 서북구 입장면 입장로 96,충청남도 천안시 서북구 입장면 효계리 24-1,36.9097524050,127.2211075251,충청남도 천안시 서북구 입장면 입장로 96 102호,충청남도 천안시 서북구 입장면 효계리 24-1. 102호,,264,247,17,0,0,,,,,,,,00:00,00:00,00:00,00:00,00:00,00:00,,,,041-522-7001,2019-09-26,4490000,충청남도 천안시
경동합동택배㈜,주사업장,충청남도 천안시 서북구 서부대로 602 (성정동),충청남도 천안시 서북구 성정동 895,36.8208451183,127.1319971724,충청남도 천안시 서북구 서부대로 602 (성정동),충청남도 천안시 서북구 성정동 895,,55,55,0,0,0,,,,,,,,00:00,00:00,00:00,00:00,00:00,00:00,,,,041-579-7476,2019-09-26,4490000,충청남도 천안시
㈜참조은,주사업장,"충청남도 천안시 동남구 봉서8길 13 (봉명동, 청솔3차아파트) 상가 107, 108호",충청남도 천안시 동남구 봉명동 494,36.8113494996,127.1333660353,"충청남도 천안시 동남구 봉서8길 13 (봉명동, 청솔3차아파트) 상가 107, 108호","충청남도 천안시 동남구 봉명동 494 봉명청솔 상가107,108호",,76,72,4,0,0,,,,,,,,00:00,00:00,00:00,00:00,00:00,00:00,,,,041-572-0033,2019-09-26,4490000,충청남도 천안시
에스제이엠글로벌㈜,주사업장,충청남도 천안시 서북구 백석3로 25 (백석동),충청남도 천안시 서북구 백석동 284,36.8218186746,127.1142447783,충청남도 천안시 서북구 백석3로 25 (백석동),충청남도 천안시 서북구 백석동 284,,54,53,1,0,0,,,,,,,,00:00,00:00,00:00,00:00,00:00,00:00,,,,041-555-8600,2019-09-26,4490000,충청남도 천안시
다성렌트카㈜,주사업장,충청남도 천안시 동남구 천안천10길 72-1 (신부동),충청남도 천안시 동남구 신부동 205-14,36.8281797871,127.1641221720,충청남도 천안시 동남구 천안천10길 72-1 (신부동),충청남도 천안시 동남구 신부동 205-14,,61,58,3,0,0,,,,,,,,00:00,00:00,00:00,00:00,00:00,00:00,,,,041-579-0009,2019-09-26,4490000,충청남도 천안시
애니렌트카㈜,주사업장,충청남도 천안시 동남구 버들로 156 (원성동) 1층,충청남도 천안시 동남구 원성동 526-1,36.8062256427,127.1637749827,충청남도 천안시 동남구 버들로 156 (원성동) 1층,충청남도 천안시 동남구 원성동 526-1. 1층,,58,54,4,0,0,,,,,,,,00:00,00:00,00:00,00:00,00:00,00:00,,,,041-568-9119,2019-09-26,4490000,충청남도 천안시
신우,주사업장,충청남도 천안시 동남구 버들로 156 (원성동) 1층,충청남도 천안시 동남구 원성동 526-1,36.8062256427,127.1637749827,충청남도 천안시 동남구 버들로 156 (원성동) 1층,충청남도 천안시 동남구 원성동 526-1. 1층,,51,48,3,0,0,,,,,,,,00:00,00:00,00:00,00:00,00:00,00:00,,,,041-568-9119,2019-09-26,4490000,충청남도 천안시
(주)씨엔에스어울림렌트카 설악 영업소,영업소,경기도 가평군 설악면 유명로1641-5 203호,,37.6568024,127.3882135,경기도 가평군 설악면 유명로1641-5 203호,경기도 가평군 설악면 신천리 601,,2,2,0,0,0,,,,,,,,09:00,20:00,,,,,,,,031-584-4123,2019-09-17,4160000,경기도 가평군
(주)바로바로렌트카 가평 영업소,영업소,경기도 가평군 가평읍 북한강변로 479-57,,37.7691100128,127.5371350478,경기도 가평군 가평읍 북한강변로 479-57,경기도 가평군 가평읍 금대리 284-17,,22,14,8,0,0,,,,,,,,09:00,20:00,,,,,,,,02-985-8585,2019-09-17,4160000,경기도 가평군
(주)효산렌트카 가평 영업소,영업소,경기도 가평군 가평읍 태봉두밀로 612-37,,37.8112219,127.435064,경기도 가평군 가평읍 태봉두밀로 612-37,경기도 가평군 가평읍 두밀리 521,,19,0,19,0,0,,,,,,,,09:00,20:00,,,,,,,,031-581-4005,2019-09-17,4160000,경기도 가평군
(주)채움렌트카 가평영업소,영업소,경기도 가평군 가평읍 문화로 13-42,,37.8142485533,127.5110191981,경기도 가평군 가평읍 문화로 13-42,경기도 가평군 가평읍 마장리 428-5,,0,0,0,0,0,,,,,,,,09:00,20:00,,,,,,,,031-581-1838,2019-09-17,4160000,경기도 가평군
제너스렌트카(주) 가평렌트카,영업소,"경기도 가평군 가평읍 태평길 3, 2층",,37.8276765407,127.5150964096,"경기도 가평군 가평읍 태평길 3, 2층",경기도 가평군 가평읍 개곡리 698-1,,5,5,0,0,0,,,,,,,,09:00,20:00,,,,,,,,031-582-6488,2019-09-17,4160000,경기도 가평군
㈜광명렌트카 가평영업소,영업소,경기도 가평군 가평읍 오리나무길 41-20,,37.8241332,127.5146042,경기도 가평군 가평읍 오리나무길 41-20,,,10,8,2,0,0,,,,,,,,09:00,20:00,,,,,,,,031-582-5300,2019-09-17,4160000,경기도 가평군
㈜우등렌트카 울산영업소,영업소,"울산광역시 남구 중앙로 151번길 2, 2층",,35.5344566641,129.313434,울산광역시 남구 삼산로55번길 6-1,,,0,0,0,0,0,,,,,,,,09:00,18:00,,,,,,,,052-708-9000,2020-03-25,6310000,울산광역시
㈜비마이카 울산영업소,영업소,울산광역시 남구 신정동 1911 신정지웰 109호,,35.522070,129.309913,울산광역시 남구 신정동 168-2,,,0,0,0,0,0,,,,,,,,09:00,18:00,,,,,,,,052-261-2230,2020-03-25,6310000,울산광역시
㈜제이에스밴,주사업장,"인천광역시 서구 승학로 414, 2층(검암동, 홍심빌딩)",,37.5586058457,126.673336,인천광역시 서구 보듬5로 5,,,71,1,70,0,0,,,,,,,,08:00,18:00,08:00,15:00,,,일,,,032-1544-7194,2020-03-25,3560000,인천광역시 서구
㈜엔아이씨이새인천렌트카,주사업장,인천광역시 서구 봉수대로 254-1,,37.4985641,126.662709,인천광역시 서구 건지로 186,,,193,181,12,0,0,,,,,,,,09:00,19:00,09:00,19:00,,,일,,,032-882-0106,2020-03-25,3560000,인천광역시 서구
㈜세원렌트카,주사업장,인천광역시 서구 가좌동 295,,37.482664,126.682006,인천광역시 서구 검단로459번길 4,,,67,67,0,0,0,,,,,,,,09:00,19:00,09:00,15:00,,,일,,,032-505-8311,2020-03-25,3560000,인천광역시 서구
장기렌트카(주),주사업장,인천광역시 서구 봉수대로 1601,인천광역시 서구 금곡동 356-11,37.6140062224,126.6400130538,"인천광역시 서구 봉수대로 1601, 1603",,,185,168,17,0,0,,,,,,,,09:00,18:00,,,,,"토,일",,,032-569-0082,2020-03-25,3560000,인천광역시 서구
㈜행운렌트카,주사업장,인천광역시 서구 경명대로 398,인천광역시 서구 경서동 346-6,37.55215673,126.6525736,인천광역시 서구 검단로459번길 4,인천광역시 서구 경서동 997,,35,32,3,0,0,,,,,,,,08:30,18:00,08:30,16:00,,,연중무휴,,,032-563-4972,2020-03-25,3560000,인천광역시 서구
㈜에이스랜트,주사업장,인천광역시 서구 보도진로 49,,37.4948555510,126.653362,인천광역시 서구 보도진로 49,,,61,58,3,0,0,,,,,,,,09:00,18:30,09:00,16:00,,,일,,,032-573-0666,2020-03-25,3560000,인천광역시 서구
㈜신현대렌트카,주사업장,인천광역시 서구 석남로 121,,37.501062,126.675313,인천광역시 서구 가좌로83번길 22,,,54,52,2,0,0,,,,,,,,08:30,17:30,08:30,17:30,,,일,,,032-572-2288,2020-03-25,3560000,인천광역시 서구
경원렌트카㈜,주사업장,"경기도 안산시 상록구 한양대학로 35, 2층",경기도 안산시 상록구 사동 1152,37.30071437,126.839841,경기도 안산시 단원구 광덕2로 156-11(고잔동),경기도 안산시 단원구 고잔동 716-6,,65,61,4,0,0,,,,,,,,09:00,18:00,,,,,,,,031-413-2277,2020-03-02,3930000,경기도 안산시
경원렌트카㈜선부영업소,영업소,"경기도 안산시 단원구 선부광장1로 26, 115호(선부동)","경기도 안산시 단원구 선부동 1070-14, 문정프라자",37.33612816,126.808087,경기도 안산시 단원구 광덕2로 156-11(고잔동),"경기도 안산시 단원구 신길동 1631 , 4층",,17,16,1,0,0,,,,,,,,09:00,18:00,,,,,,,,031-413-2277,2020-03-02,3930000,경기도 안산시
㈜일일사렌트카,주사업장,"경기도 안산시 상록구 석호로 38, 101호(이동)",경기도 안산시 상록구 이동 682-4,37.30801552,126.8474068,"경기도 안산시 단원구 초지2로 67-7(초지동,한양타워)",경기도 안산시 단원구 초지동 734-5 한양타워,,72,69,3,0,0,,,,,,,,09:00,18:00,,,,,,,,031-484-1114,2020-03-02,3930000,경기도 안산시
㈜일일사렌트카단원영업소,영업소,"경기도 안산시 단원구 선이로 14, 113호1139호(선부동,제일종합시장)","경기도 안산시 단원구 선부동 1028, 안산제1종합시장",37.342309,126.8036317190,"경기도 안산시 단원구 초지2로 67-7(초지동,한양타워)",경기도 안산시 단원구 초지동 734-5 한양타워,,25,24,1,0,0,,,,,,,,09:00,18:00,,,,,,,,031-484-1114,2020-03-02,3930000,경기도 안산시
㈜일일사렌트카본오영업소,영업소,경기도 안산시 상록구 각골로 94(본오동),경기도 안산시 상록구 본오동 759-12,37.297849,126.8730657785,"경기도 안산시 단원구 초지2로 67-7(초지동,한양타워)",경기도 안산시 단원구 초지동 734-5 한양타워,,12,12,0,0,0,,,,,,,,09:00,18:00,,,,,,,,031-409-2114,2020-03-02,3930000,경기도 안산시
㈜일일사렌트카신안산영업소,영업소,경기도 안산시 상록구 충장로 262-1(이동),경기도 안산시 상록구 이동 579-6,37.304915,126.859238,"경기도 안산시 단원구 초지2로 67-8(초지동,한양타워)",경기도 안산시 단원구 초지동 734-5 한양타워,,8,7,1,0,0,,,,,,,,09:00,18:00,,,,,,,,031-439-2332,2020-03-02,3930000,경기도 안산시
㈜일일사렌트카일동영업소,영업소,"경기도 안산시 상록구 실록길 16, 101호(일동)",경기도 안산시 상록구 일동 654-1,37.305522,126.866189,"경기도 안산시 단원구 초지2로 67-8(초지동,한양타워)",경기도 안산시 단원구 초지동 734-5 한양타워,,7,6,1,0,0,,,,,,,,09:00,18:00,,,,,,,,031-437-9090,2020-03-02,3930000,경기도 안산시
㈜일일사렌트카사동영업소,영업소,경기도 안산시 상록구 선진로 29(사동),경기도 안산시 상록구 사동 1488-11,37.279185,126.847423,"경기도 안산시 단원구 초지2로 67-8(초지동,한양타워)",경기도 안산시 단원구 초지동 734-5 한양타워,,5,5,0,0,0,,,,,,,,09:00,18:00,,,,,,,,031-415-8877,2020-03-02,3930000,경기도 안산시
그린렌트카㈜,주사업장,"경기도 안산시 단원구 선부광장로17, 114호(선부동,다이아몬드빌딩)","경기도 안산시 단원구 선부동 1070-2, 다이아몬드빌딩",37.335956,126.809017,경기도 안산시 단원구 광덕2로 156-11,경기도 안산시 단원구 고잔동 716-6MK주차타워,,19,19,0,0,0,,,,,,,,09:00,18:00,,,,,,,,031-411-8600,2020-03-02,3930000,경기도 안산시
케이렌트카㈜,주사업장,"경기도 안산시 상록구 선진6길2, 101호(사동,해안프라자)","경기도 안산시 상록구 사동 1497, 해안프라자 101호",37.28151963,126.843217,경기도 안산시 단원구 신길로1길 10,경기도 안산시 단원구 신길동 1631,,55,50,5,0,0,,,,,,,,09:00,18:00,,,,,,,,031-407-0111,2020-03-02,3930000,경기도 안산시
케이렌트카㈜상록영업소,영업소,"경기도 안산시 상록구 용신로 457, 101호(본오동)","경기도 안산시 상록구 본오동 1116-8, 101호",37.301606,126.8729331405,경기도 안산시 단원구 신길로1길 10,경기도 안산시 단원구 신길동 1631,,10,9,1,0,0,,,,,,,,09:00,18:00,,,,,,,,031-407-0111,2020-03-02,3930000,경기도 안산시
케이렌트카㈜이동영업소,영업소,"경기도 안산시 상록구 박우물로 4, 102호(이동)","경기도 안산시 상록구 이동 677, 101호",37.30872907,126.844574,경기도 안산시 단원구 신길로1길 10,경기도 안산시 단원구 신길동 1631,,10,8,2,0,0,,,,,,,,09:00,18:00,,,,,,,,031-407-0111,2020-03-02,3930000,경기도 안산시
케이렌트카㈜월피영업소,영업소,"경기도 안산시 상록구 광덕산2로 38, 101호(월피동)",경기도 안산시 상록구 월피동 511,37.334511,126.846973,경기도 안산시 단원구 신길로1길 10,경기도 안산시 단원구 신길동 1631,,4,3,1,0,0,,,,,,,,09:00,18:00,,,,,,,,031-407-0111,2020-03-02,3930000,경기도 안산시
㈜오토렌트카,주사업장,"경기도 안산시 단원구 고잔로 54, 502호(고잔동)","경기도 안산시 단원구 고잔동 529-1, 에이스타워 502호",37.319008,126.832132,경기도 안산시 단원구 원고잔로 25(고잔동),경기도 안산시 단원구 고잔동 545-1,,97,91,6,0,0,,,,,,,,09:00,18:00,,,,,,,,031-411-2000,2020-03-02,3930000,경기도 안산시
㈜위너스렌트카,주사업장,"경기도 안산시 단원구 광덕1로 163, 207호(고잔동,동남레이크빌2차)","경기도 안산시 단원구 고잔동 718-1, 동남레이크빌2차 207호",37.308378,126.827824,경기도 안산시 단원구 광덕서로 48,경기도 안산시 단원구 고잔동 715-3 양지주차빌딩,,39,39,0,0,0,,,,,,,,09:00,18:00,,,,,,,,031-511-6799,2020-03-02,3930000,경기도 안산시
㈜그레이트렌트카,주사업장,"경기도 안산시 단원구 초지로 178, 2층(초지동)",경기도 안산시 단원구 초지동 696-5,37.314713,126.815631,경기도 안산시 단원구 초지2로 67,경기도 안산시 단원구 고잔동 552-1,,52,49,3,0,0,,,,,,,,09:00,18:00,,,,,,,,031-494-9999,2020-03-02,3930000,경기도 안산시
㈜삼천리렌트카 북울산영업소,영업소,울산광역시 북구 진장동 285-3 진장디플렉스 2138호,,35.572351,129.358059,울산광역시 북구 진장유통로 16 진장디플렉스(진장동),,,14,12,2,0,0,,,,,,,,09:00,18:00,,,,,,,,070-4323-3299,2020-03-25,6310000,울산광역시
오토랜드세이프㈜ 울산영업소,영업소,울산광역시 북구 연암동 316-1,,35.581202,129.365655,울산광역시 북구 달천동 489-34,,,2,2,0,0,0,,,,,,,,09:00,18:00,,,,,,,,052-289-8282,2020-03-25,6310000,울산광역시
㈜경일알씨 울산영업소,영업소,울산광역시 북구 진장로 94(진장동),,35.569461,129.357166,울산광역시 북구 진장동 518-1(18B 33L),,,4,4,0,0,0,,,,,,,,09:00,18:00,,,,,,,,052-288-8853,2020-03-25,6310000,울산광역시
㈜세종통운 울산영업소,영업소,울산광역시 울주군 두동면 계명1길 25-1,,35.712760,129.198151,울산광역시 울주군 두동면 봉계리 539-4,,,3,2,1,0,0,,,,,,,,09:00,18:00,,,,,,,,052-264-8882,2020-03-25,6310000,울산광역시
㈜극동오토렌탈 울산영업소,영업소,울산광역시 북구 산업로 1425(신천동),,35.633110,129.345017,울산광역시 북구 신천동 386-20,,,13,13,0,0,0,,,,,,,,09:00,18:00,,,,,,,,052-266-7277,2020-03-25,6310000,울산광역시
㈜극동오토렌탈 언양영업소,영업소,울산광역시 울주군 삼남면 중평강변길 21,,35.561879,129.123776,울산광역시 울주군 언양읍 어음리 76-6,,,6,6,0,0,0,,,,,,,,09:00,18:00,,,,,,,,052-262-9889,2020-03-25,6310000,울산광역시
㈜부경알엔티 울산영업소,영업소,울산광역시 남구 화합로102번길 11-11,,35.534776,129.342979,울산광역시 남구 화합로102번길 11-11,,,18,18,0,0,0,,,,,,,,09:00,18:00,,,,,,,,052-272-3434,2020-03-25,6310000,울산광역시
㈜고고렌트카 울산남구영업소,영업소,울산광역시 남구 신정동 170-2,,35.540448,129.319009,울산광역시 남구 신정동 170-2,,,9,9,0,0,0,,,,,,,,09:00,18:00,,,,,,,,052-257-7177,2020-03-25,6310000,울산광역시
㈜더라임 울산영업소,영업소,울산광역시 남구 산업로 617,,35.536483,129.351411,울산광역시 남구 산업로 617,,,3,3,0,0,0,,,,,,,,09:00,18:00,,,,,,,,052-289-7114,2020-03-25,6310000,울산광역시
㈜뉴그린렌트카 울산영업소,영업소,울산광역시 남구 수암로 25,,35.532092,129.311018,울산광역시 남구 신정동 732-4,,,16,15,1,0,0,,,,,,,,09:00,18:00,,,,,,,,052-269-5080,2020-03-25,6310000,울산광역시
㈜오케이렌트카 울산바른영업소,영업소,울산광역시 남구 달동 118-1 현대아파트상가 B동 205호,,35.536422,129.326212,울산광역시 중구 학산동 167-4(옥골샘3길 6),,,9,9,0,0,0,,,,,,,,09:00,18:00,,,,,,,,052-227-4572,2020-03-25,6310000,울산광역시
투투렌트카(유) 울산영업소,영업소,울산광역시 남구 화합로 162 나인파크오피스텔 1720호,,35.539057,129.339677,울산광역시 남구 팔등로 41번길 17 은월주차장,,,5,5,0,0,0,,,,,,,,09:00,18:00,,,,,,,,070-7813-4499,2020-03-25,6310000,울산광역시
㈜신세계-진주 남울산영업소,영업소,울산광역시 남구 꽃대나리로37번길 8 2층(달동),,35.534637,129.334056,울산광역시 울주군 온산읍 온산로 286,,,15,15,0,0,0,,,,,,,,09:00,18:00,,,,,,,,052-227-7155,2020-03-25,6310000,울산광역시
㈜쏘카 울산영업소,영업소,울산광역시 남구 대학로84번길 9-1,,35.542337,129.260726,울산광역시 남구 무거동 629-11,,,111,111,0,0,0,,,,,,,,09:00,18:00,,,,,,,,070-4659-6905,2020-03-25,6310000,울산광역시
㈜뉴예스렌트카,영업소,울산광역시 울주군 삼남면 동향교2길 1,,35.554885,129.118415,울산광역시 울주군 삼남면 교동리 1626-3,,,38,31,7,0,0,,,,,,,,09:00,18:00,,,,,,,,052-262-8200,2020-03-25,6310000,울산광역시
(유)현대렌트카,영업소,전라남도 순천시 연향2로1,,34.9482540020,127.5156611666,전라남도 순천시 연자로 31(동외동),,396,10,9,1,0,0,,,,,,,,00:00,23:59,,,,,,,,000-0000-0000,2020-02-24,4820000,전라남도 순천시
㈜이렌트카 울산영업소,영업소,울산광역시 울주군 언양로 127,,35.557889,129.139384,울산광역시 남구 옥현로 123,,,1,1,0,0,0,,,,,,,,09:00,18:00,,,,,,,,052-953-3000,2020-03-25,6310000,울산광역시
㈜솔렌트카 울산영업소,영업소,울산광역시 남구 돋질로 154,,35.540417,129.322285,울산광역시 북구 명촌23길 34,,,15,15,0,0,0,,,,,,,,09:00,18:00,,,,,,,,052-256-7859,2020-03-25,6310000,울산광역시
㈜에이엠렌트카 울산삼산영업소,영업소,울산광역시 남구 산업로 697,,35.542718,129.354394,울산광역시 남구 산업로 697,,,0,0,0,0,0,,,,,,,,09:00,18:00,,,,,,,,052-269-8282,2020-03-25,6310000,울산광역시
㈜칸렌트카 울산영업소,영업소,울산광역시 남구 신정로34번길 17,,35.535529,129.324232,울산광역시 남구 대학로84번길 9-1,,,13,12,1,0,0,,,,,,,,09:00,18:00,,,,,,,,052-256-9191,2020-03-25,6310000,울산광역시
마춤카㈜ 울산영업소,영업소,울산광역시 북구 명촌18길 4,,35.557435,129.354909,울산광역시 남구 대학로84번길 9-1,,,7,6,1,0,0,,,,,,,,09:00,18:00,,,,,,,,052-288-3560,2020-03-25,6310000,울산광역시
㈜알앤에이 울산1영업소,영업소,울산광역시 남구 월평로129번길 21,,35.545860,129.318545,울산광역시 남구 신정동 249-9,,,5,5,0,0,0,,,,,,,,09:00,18:00,,,,,,,,052-269-5200,2020-03-25,6310000,울산광역시
㈜알앤에이 울산2영업소,영업소,울산광역시 동구 해수욕장6길 25,,35.4915094880,129.4304743644,울산광역시 동구 해수욕장6길 25,,,3,3,0,0,0,,,,,,,,09:00,18:00,,,,,,,,052-269-5200,2020-03-25,6310000,울산광역시
하나렌트카㈜ 울산영업소,영업소,울산광역시 동구 꽃바위로 169,,35.477674,129.410760,울산광역시 동구 방어동 1044-17,,,4,4,0,0,0,,,,,,,,09:00,18:00,,,,,,,,052-235-0662,2020-03-25,6310000,울산광역시
창신렌트카㈜울산영업소,영업소,울산광역시 중구 남외동 512-16,,35.566291,129.346561,울산광역시 중구 남외동 512-16,,,5,5,0,0,0,,,,,,,,09:00,18:00,,,,,,,,052-293-9996,2020-03-25,6310000,울산광역시
씨앤에이치프리미어렌탈 울산영업소,영업소,울산광역시 신정동 165-6 스카이파크 101호,,35.540882,129.320802,울산광역시 남구 무거동 629-11,,,13,13,0,0,0,,,,,,,,09:00,18:00,,,,,,,,052-265-1099,2020-03-25,6310000,울산광역시
(주)에이엠렌트카 울산남구영업소,영업소,"울산광역시 남구 남중로 25, 103호",,35.536668,129.347044,울산광역시 남구 신정동 516-7,,,8,8,0,0,0,,,,,,,,09:00,18:00,,,,,,,,052-257-7177,2020-03-25,6310000,울산광역시
㈜국제렌트카 울산영업소,영업소,울산광역시 남구 정동로 131-1,,35.5456936638,129.344280,울산광역시 북구 진장동 696-5,,,0,0,0,0,0,,,,,,,,09:00,18:00,,,,,,,,052-164-7824,2020-03-25,6310000,울산광역시
유니티자산개발㈜  울산공항영업소,영업소,울산광역시 북구 송정동522 울산공항1층,,35.593690,129.356531,울산광역시 북구 송정동 522 울산공항주차장,,,0,0,0,0,0,,,,,,,,09:00,18:00,,,,,,,,052-289-5402,2020-03-25,6310000,울산광역시
㈜금성교역,주사업장,울산광역시 남구 중앙로 204번길 32-1(101호신정동),,35.539628,129.315923,울산광역시 중구 학성동 82-5,,,52,43,9,0,0,,,,,,,,09:00,18:00,,,,,,,,052-257-8119,2020-03-25,6310000,울산광역시
(유)타이거렌트카,주사업장,울산광역시 남구 화합로 209(삼산동),,35.543556,129.339065,울산광역시 남구 화합로 209,,,108,100,8,0,0,,,,,,,,09:00,19:00,,,,,,,,052-269-1551,2020-03-25,6310000,울산광역시
㈜현대하이렌트카,주사업장,울산광역시 남구 삼산로 309(삼산동대성타워7층),,35.540214,129.340787,울산광역시 남구 번영로 124번길7,,,52,47,5,0,0,,,,,,,,09:00,18:00,,,,,,,,052-283-1110,2020-03-25,6310000,울산광역시
㈜나우렌트카,주사업장,울산광역시 남구 화합로 210번길 3(삼산동),,35.543527,129.340231,울산광역시 남구 화합로 210번길 3,,,85,81,4,0,0,,,,,,,,09:00,18:00,,,,,,,,052-256-2188,2020-03-25,6310000,울산광역시
㈜뉴현대렌트카,주사업장,울산광역시 남구 월평로159번길 24(신정동),,35.547178,129.322339,울산광역시 남구 월평로159번길 24(신정동),,,83,79,4,0,0,,,,,,,,09:00,18:00,,,,,,,,052-269-6555,2020-03-25,6310000,울산광역시
곰두리렌터카㈜,주사업장,울산광역시 동구 후릉길 1(방어동),,35.487989,129.416073,울산광역시 동구 방어동 928-29,,,285,255,30,0,0,,,,,,,,09:00,19:00,,,,,,,,052-233-3535,2020-03-25,6310000,울산광역시
금강렌트카㈜,주사업장,울산광역시 북구 효암로 164(효문동),,35.561919,129.365196,울산광역시 북구 효암로 164,,,131,115,16,0,0,,,,,,,,09:00,18:00,,,,,,,,052-283-7030,2020-03-25,6310000,울산광역시
㈜대동렌트카,주사업장,울산광역시 북구 명촌1길 18-12 101호(진장동),,35.559591,129.358053,울산광역시 울주군 두서면 복안리 407,,,84,75,9,0,0,,,,,,,,09:00,18:00,,,,,,,,052-289-8900,2020-03-25,6310000,울산광역시
에이스렌터카㈜,주사업장,울산광역시 북구 명촌7길 6(진장동),,35.556605,129.358805,울산광역시 북구 명촌7길 6(진장동),,,50,45,5,0,0,,,,,,,,09:00,19:00,,,,,,,,052-286-0000,2020-03-25,6310000,울산광역시
울산렌트카㈜,주사업장,울산광역시 중구 학성로 241(학성동),,35.556407,129.337143,울산광역시 북구 신천동 158-12,,,74,60,14,0,0,,,,,,,,09:00,18:00,,,,,,,,052-292-7054,2020-03-25,6310000,울산광역시
㈜제일렌트카,주사업장,울산광역시 북구 염포로 177,,35.561151,129.358783,울산광역시 북구 진장동 명촌구획지구 58B 2L,,,105,102,3,0,0,,,,,,,,09:00,18:00,,,,,,,,052-256-7775,2020-03-25,6310000,울산광역시
뉴곰두리렌터카㈜,주사업장,울산광역시 남구 정동로 128,,35.545155,129.344931,울산광역시 남구 정동로 128,,,106,102,4,0,0,,,,,,,,09:00,18:00,,,,,,,,052-227-8050,2020-03-25,6310000,울산광역시
㈜케이제이렌트카,영업소,울산광역시 울주군 범서읍 대리로 99,,35.566161,129.249613,울산광역시 울주군 범서읍 대리로 99,,,28,26,2,0,0,,,,,,,,09:00,18:00,,,,,,,,052-268-5855,2020-03-25,6310000,울산광역시
㈜한진렌트카 울산삼산영업소,영업소,울산광역시 남구 삼산동 1542-8,,35.544476,129.343876,울산광역시 남구 삼산동 1542-8,,,11,10,1,0,0,,,,,,,,09:00,18:00,,,,,,,,052-903-8387,2020-03-25,6310000,울산광역시
㈜한지렌트카 울산영업소,영업소,울산광역시 중구 내황2길 9,,35.553522,129.341501,울산광역시 중구 내황2길 9,,,79,70,9,0,0,,,,,,,,09:00,18:00,,,,,,,,052-283-2115,2020-03-25,6310000,울산광역시
㈜조이렌트카 울산영업소,영업소,울산광역시 남구 장생포고래로 292,,35.505501,129.385003,울산광역시 남구 장생포고래로 292,,,1,1,0,0,0,,,,,,,,09:00,18:00,,,,,,,,051-323-2449,2020-03-25,6310000,울산광역시
㈜플러스렌트카 울산영업소,영업소,울산광역시 남구 봉월로 77(신정동),,35.539419,129.305182,울산광역시 남구 봉월로 68(신정동),,,9,9,0,0,0,,,,,,,,09:00,18:00,,,,,,,,052-227-4982,2020-03-25,6310000,울산광역시
롯데렌탈㈜ 울산영업소,영업소,울산광역시 북구 진장유통로 8-10 203호,,35.571318,129.358007,울산광역시 북구 진장동 285-6 401호,,,742,705,37,0,0,,,,,,,,09:00,18:00,,,,,,,,052-223-8000,2020-03-25,6310000,울산광역시
㈜유카 울산역영업소,영업소,울산광역시 울주군 삼남면 신화리 산3-3,,35.553056,129.138911,울산광역시 울주군 삼남면 신화리 24-3,,,63,63,0,0,0,,,,,,,,09:00,19:00,,,,,,,,052-264-4242,2020-03-25,6310000,울산광역시
㈜에스케이이렌트카 울산영업소,영업소,울산광역시 남구 산업로 643번길 17,,35.538437,129.349715,울산광역시 남구 산업로 643번길 17,,,112,112,0,0,0,,,,,,,,09:00,18:00,,,,,,,,052-267-6100,2020-03-25,6310000,울산광역시
㈜오케이렌트카 울산북구영업소,영업소,울산광역시 북구 진장동 명촌지구 58B-13L,,35.571524,129.357995,울산광역시 북구 진장동 명촌지구 60B-2L,,,25,24,1,0,0,,,,,,,,09:00,18:00,,,,,,,,052-283-4500,2020-03-25,6310000,울산광역시
㈜레드캡투어 울산영업소,영업소,울산광역시 남구 신정로 111 동해오피스텔 1004호,,35.541388,129.319454,울산광역시 중구 옥골샘3길 6,,,11,11,0,0,0,,,,,,,,09:00,18:00,,,,,,,,052-275-3771,2020-03-25,6310000,울산광역시
㈜한진렌트카 울산영업소,영업소,울산광역시 남구 달동 1250-1,,35.537501,129.330711,울산광역시 남구 달동 1250-1,,,23,21,2,0,0,,,,,,,,09:00,18:00,,,,,,,,052-900-5440,2020-03-25,6310000,울산광역시
㈜한진렌트카 울산제2영업소,영업소,울산광역시 중구 내황2길 9(반구동),,35.553522,129.341501,울산광역시 남구 무거동 1527-3,,,9,9,0,0,0,,,,,,,,09:00,18:00,,,,,,,,052-283-2114,2020-03-25,6310000,울산광역시
㈜신세계-진주 울산영업소,영업소,울산광역시 남구 달동 1305-10번지(꽃대나리로79),,35.533959,129.338633,울산광역시 남구 산업로 585번지 28(여천동 1252-3),,,15,15,0,0,0,,,,,,,,09:00,18:00,,,,,,,,052-245-6622,2020-03-25,6310000,울산광역시
㈜오케이렌트카 울산영업소,영업소,울산광역시 남구 달동 1288-7,,35.534094,129.334477,울산광역시 남구 달동 1288-7,,,11,10,1,0,0,,,,,,,,09:00,18:00,,,,,,,,052-276-3030,2020-03-25,6310000,울산광역시
㈜VIP렌트카-대구 울산영업소,영업소,울산광역시 남구 산업로 679,,35.541607,129.353109,울산광역시 남구 산업로 679,,,11,10,1,0,0,,,,,,,,09:00,18:00,,,,,,,,052-288-3800,2020-03-25,6310000,울산광역시
㈜VIP렌트카-포항 온산영업소,영업소,울산광역시 울주군 온산읍 신경5길 22,,35.431796,129.307429,울산광역시 울주군 온산읍 덕신리 523,,,24,23,1,0,0,,,,,,,,09:00,18:00,,,,,,,,052-239-9946,2020-03-25,6310000,울산광역시
㈜삼천리렌트카 울산영업소,영업소,울산광역시 북구 진장동 771-3,,35.560285,129.355176,울산광역시 북구 진장동 771-3,,,10,9,1,0,0,,,,,,,,09:00,18:00,,,,,,,,052-296-3200,2020-03-25,6310000,울산광역시
㈜삼천리렌트카 남울산영업소,영업소,울산광역시 남구 신정동 727-12,,35.532543,129.310885,울산광역시 남구 신정동 727-12,,,57,52,5,0,0,,,,,,,,09:00,18:00,,,,,,,,052-266-9887,2020-03-25,6310000,울산광역시
㈜지에스렌트리스,주사업장,경기도 평택시 칠괴길 118-4,경기도 평택시 칠괴동 495-2,37.0256974573,127.0826596775,,경기도 평택시 포승읍 홍원리 289,0,0,0,0,0,0,,,,,,,,09:00,18:00,,,,,,,,031-666-4982,2020-05-21,3910000,경기도 평택시
아이비렌트카㈜,주사업장,경기도 평택시 평남로 250-26,경기도 평택시 통복동 367-37,36.9927080959,127.0757491182,경기도 평택시 평남로 250-26,경기도 평택시 통복동 367-37,234,79,76,3,0,0,,,,,,,,09:00,18:00,,,,,,,,031-618-3382,2020-05-21,3910000,경기도 평택시
아이비렌트카㈜,주사업장,경기도 평택시 평남로 250-26,경기도 평택시 통복동 367-37,36.9927080959,127.0757491182,경기도 평택시 평남로 250-34,경기도 평택시 통복동 367-28,0,0,0,0,0,0,,,,,,,,09:00,18:00,,,,,,,,031-618-3382,2020-05-21,3910000,경기도 평택시
아이비렌트카㈜,주사업장,경기도 평택시 평남로 250-26,경기도 평택시 통복동 367-37,36.9927080959,127.0757491182,경기도 평택시 평남로 208,경기도 평택시 통복동 231-6,0,0,0,0,0,0,,,,,,,,09:00,18:00,,,,,,,,031-618-3382,2020-05-21,3910000,경기도 평택시
㈜우리렌트카,영업소,경기도 양주시 부흥로 1880,경기도 양주시 광사동 344-6,37.79101167,127.0736503,"경기도 양주시 부흥로 1880, 어하고개로 88-14","경기도 양주시 광사동 344-6, 삼숭동 37-1",,44,38,6,0,0,,,,,,,,09:00,18:00,,,,,,,최은숙,031-846-5700,2020-04-01,5590000,경기도 양주시
㈜에이제이렌트카,영업소,경기도 양주시 평화로 1426,경기도 양주시 덕계동 420-9,37.8181161,127.0462094,경기도 양주시 평화로 1426,경기도 양주시 덕계동 420-9,,20,10,10,0,0,,,,,,,,09:00,20:00,,,,,,,반채운,031-864-5858,2020-04-01,5590000,경기도 양주시
㈜뉴수호렌트카,영업소,경기도 양주시 백석읍 중앙로 9,경기도 양주시 백석읍 방성리 526-25,37.7921256,127.0100086,경기도 양주시 중앙로 9,경기도 양주시 백석읍 방성리 526-25,,1,1,0,0,0,,,,,,,,09:00,18:00,,,,,,,김한순,02-3491-8744,2020-04-01,5590000,경기도 양주시
㈜에듀카레져,영업소,경기도 양주시 독바위로 13(덕정동),경기도 양주시 덕정동 219-7,37.84003357,127.0629563,경기도 양주시 독바위로 13,경기도 양주시 덕정동 219-7,,18,17,1,0,0,,,,,,,,09:00,20:00,,,,,,,김지훈,02-375-9990,2020-04-01,5590000,경기도 양주시
가나다렌트카,주사업장,"인천광역시 미추홀구 경원대로752번길 19 (주안동, 110호)",,37.4501474881,126.690983,인천광역시 연수구 테크노파크로164,,,30,29,1,0,0,,,,,,,,08:00,20:00,,,,,,,,032-433-2324,2019-09-26,3510500,인천광역시 미추홀구
가나다렌트카,영업소,"인천광역시 미추홀구 소성로228번길 11 (학익동, 103호)",,37.438782,126.673065,인천광역시 연수구 테크노파크로164,,,11,10,1,0,0,,,,,,,,09:00,19:00,,,,,,,,032-462-7351,2019-09-26,3510500,인천광역시 미추홀구
엠티렌터카,주사업장,"인천광역시 미추홀구 문화로51(관교동,301호)",,37.4437012472,126.6985034712,인천광역시 연수구 테크노파크로 164,,,90,90,0,0,0,,,,,,,,09:30,19:00,,,,,,,,032-433-3005,2019-09-26,3510500,인천광역시 미추홀구
팔도렌트카,주사업장,인천광역시 미추홀구 낙섬서로49번길 30-9(용현동),,37.4547193951,126.6348239588,인천광역시 미추홀구 낙섬서로49번길 30-9 외 1곳,,,79,77,2,0,0,,,,,,,,08:30,20:00,,,,,,,,032-888-5595,2019-09-26,3510500,인천광역시 미추홀구
팔도렌트카,영업소,인천광역시 미추홀구 주승로17번길 5(주안동),,37.4440277536,126.672275,"인천광역시 서구 중봉대로 612번길 10-17,7층(청라타워돔)",,,10,10,0,0,0,,,,,,,,08:30,20:00,,,,,,,,032-888-5595,2019-09-26,3510500,인천광역시 미추홀구
해피렌트카,주사업장,인천광역시 미추홀구 한나루로460(주안동),,37.448037,126.6681086565,인천광역시 미추홀구 한나루로460(주안동),,,52,48,4,0,0,,,,,,,,08:30,19:30,,,,,,,,032-876-6700,2019-09-26,3510500,인천광역시 미추홀구
이렌트카,주사업장,인천광역시 미추홀구 경인로 460(주안동),,37.458011,126.691511,인천광역시 미추홀구 연수구 테크노파크로164,,,90,81,9,0,0,,,,,,,,09:00,21:00,,,,,,,,032-425-3366,2019-09-26,3510500,인천광역시 미추홀구
이렌트카,영업소,인천광역시 미추홀구 아암대로 87(용현동),,37.4538182545,126.633608,인천광역시 미추홀구 연수구 테크노파크로164 외 1곳,,,6,6,0,0,0,,,,,,,,09:00,21:00,,,,,,,,032-425-3366,2019-09-26,3510500,인천광역시 미추홀구
이렌트카,영업소,인천광역시 미추홀구 매소홀로 409(학익동)이당빌딩 306호,,37.4401870749,126.667548,인천광역시 옹진군 영흥면 영흥북로 382,,,19,18,1,0,0,,,,,,,,09:00,21:00,,,,,,,,032-425-3366,2019-09-26,3510500,인천광역시 미추홀구
에이스렌터카㈜,주사업장,경기도 안성시 대덕면 중앙로 96-15,,37.01127759,127.2406824,경기도 안성시 원곡면 만세로 1034,경기도 안성시 원곡면 칠곡리 170-4,,61,54,7,0,0,,,,,,,,09:00,18:00,09:00,18:00,09:00,18:00,,,,031-676-6794,2020-03-24,4080000,경기도 안성시
경기렌트카㈜,주사업장,경기도 안성시 공도읍 서동대로 4417,,37.0078355,127.1929081,경기도 안성시 공도읍 서동대로 4417,경기도 안성시 공도읍 마정리 503-5,,105,100,5,0,0,,,,,,,,09:00,18:00,09:00,18:00,09:00,18:00,,,,031-651-7708,2020-03-24,4080000,경기도 안성시
㈜중앙렌트카,주사업장,경기도 안성시 대덕면 중앙대학로 155,,36.99911909,127.2273646,,경기도 안성시 공도읍 마정리 122-11,,84,78,6,0,0,,,,,,,,09:00,18:00,09:00,18:00,09:00,18:00,,,,031-675-8210,2020-03-24,4080000,경기도 안성시
센트럴렌트카㈜,주사업장,경기도 안성시 장기로 142,,37.00454514,127.2784022,,"경기도 안성시 삼죽면 진촌리 206,206-3",,876,840,36,0,0,,,,,,,,09:00,18:00,09:00,18:00,09:00,18:00,,,,031-675-4321,2020-03-24,4080000,경기도 안성시
뉴하이렌트카,주사업장,경상남도 사천시 사천읍 간산1길 32,,35.091875,128.0881701,경상남도 사천시 사천읍 간산1길 32,경상남도 사천시 사천읍 구암리 1707-1,1499,70,64,6,0,0,,,,,,,,09:00,18:00,,,,,,,,055-853-7171,2020-03-26,5340000,경상남도 사천시
서경렌트카,주사업장,"경상남도 사천시 중앙로 5-1,(선구동)",,34.927366,128.0731149,경상남도 사천시 중앙로 5-1(선구동),경상남도 사천시 벌리동 494-2,1121,40,27,13,0,0,,,,,,,,09:00,18:00,,,,,,,,055-834-5555,2020-03-26,5340000,경상남도 사천시
뉴하이렌트카,영업소,경상남도 사천시 삼상로 125,,34.938782,128.088696,경상남도 사천시 삼상로 125,,195,14,13,1,0,0,,,,,,,,09:00,18:00,,,,,,,,055-853-7171,2020-03-26,5340000,경상남도 사천시
에이제이렌터카,영업소,경상남도 사천시 사천읍 사천대로 1971,,35.09224369,128.0866887,경상남도 사천시 사천읍 사천대로 1971,,0,73,73,0,0,0,,,,,,,,09:00,18:00,,,,,,,,055-852-1044,2020-03-26,5340000,경상남도 사천시
동부렌트카,영업소,경상남도 사천시 정동면 진삼로 1428,,35.07864835,128.086276,경상남도 사천시 정동면 진삼로 1428,,180,7,7,0,0,0,,,,,,,,09:00,18:00,,,,,,,,055-855-5588,2020-03-26,5340000,경상남도 사천시
오토랜드세이프,영업소,경상남도 사천시 사천읍 항공로 54,,35.08124414,128.0765739,경상남도 사천시 사천읍 항공로 54,,231,7,7,0,0,0,,,,,,,,09:00,18:00,,,,,,,,055-855-1265,2020-03-26,5340000,경상남도 사천시
롯데렌탈,영업소,경상남도 사천시 사천읍 사천대로 1971,,35.09224369,128.0866887,경상남도 사천시 사천읍 사천대로 1971,,390,89,89,0,0,0,,,,,,,,09:00,18:00,,,,,,,,055-854-8000,2020-03-26,5340000,경상남도 사천시
㈜나이스오토월드,주사업장,"서울특별시 성동구 성수이로 118, 1906호(성수동2가, 성수아카데미타워)",,37.5451437,127.057818,"서울특별시 성동구 성수이로 118, 1906호(성수동2가, 성수아카데미타워)",,,62,58,4,0,0,,,,,,,,09:00,18:00,,,,,,,허찬회,02-463-8680,2020-06-22,3030000,서울특별시 성동구
㈜싸이렌터카,주사업장,"서울특별시 성동구 동일로 143, 224호(성수동2가)",,37.5454273824,127.065362,"서울특별시 성동구 동일로 143, 224호(성수동2가)",,,126,125,1,0,0,,,,,,,,09:00,19:30,,,,,,,정용성,02-498-6667,2020-06-22,3030000,서울특별시 성동구
㈜엔카,주사업장,"서울특별시 성동구 자동차시장1길 70, 비동디호3층나7호(용답동)",,37.5603696391,127.0651468670,"서울특별시 성동구 자동차시장1길 70, 비동디호3층나7호(용답동)",,,74,70,4,0,0,,,,,,,,09:00,18:00,,,,,,,변상철,02-2247-1219,2020-06-22,3030000,서울특별시 성동구
㈜렌터카바로,주사업장,"서울특별시 성동구 마장로 296, 302호(마장동)",,37.5657029568,127.042749,"서울특별시 성동구 마장로 296, 302호(마장동)",,,91,91,0,0,0,,,,,,,,09:00,18:00,,,,,,,고민석,02-1670-0709,2020-06-22,3030000,서울특별시 성동구
프란렌트카㈜,주사업장,"서울특별시 성동구 자동차시장1길 70, 비동 2층 가열 11호(용답동)",,37.5603696391,127.0651468670,"서울특별시 성동구 자동차시장1길 70, 비동 2층 가열 11호(용답동)",,,58,58,0,0,0,,,,,,,,09:00,18:00,,,,,,,이규선,02-1599-3851,2020-06-22,3030000,서울특별시 성동구
다원렌트카㈜,주사업장,"서울특별시 성동구 아차산로 143, 성수빌딩 202호(성수동2가)",,37.5438372857,127.059918,"서울특별시 성동구 아차산로 143, 성수빌딩 202호(성수동2가)",,,69,65,4,0,0,,,,,,,,09:00,18:00,,,,,,,조기배,02-465-4202,2020-06-22,3030000,서울특별시 성동구
㈜강산렌터카,주사업장,경기도 평택시 현촌5길 5,경기도 평택시 용이동 600-1,36.9981117672,127.1324107885,,경기도 평택시 청룡동 53-5,76,76,73,3,0,0,,,,,,,,09:00,18:30,,,,,,http://www.kangsan.co/default/,,031-666-7368,2020-05-21,3910000,경기도 평택시
㈜강산렌터카,주사업장,경기도 평택시 현촌5길 5,경기도 평택시 용이동 600-1,36.9981117672,127.1324107885,경기도 평택시 팽성읍 대사로 230,경기도 평택시 팽성읍 대사리 101-7,50,40,37,3,0,0,,,,,,,,09:00,18:30,,,,,,http://www.kangsan.co/default/,,031-666-7368,2020-05-21,3910000,경기도 평택시
㈜강산렌터카,영업소,경기도 평택시 안중읍 안현로 438,경기도 평택시 안중읍 안중리 229-2,36.9886583496,126.9327693684,경기도 평택시 현덕면 송담1로 30,경기도 평택시 현덕면 인광리 186-2,25,22,21,1,0,0,,,,,,,,09:00,18:30,,,,,,http://www.kangsan.co/default/,,031-681-5066,2020-05-21,3910000,경기도 평택시
㈜강산렌터카,영업소,경기도 평택시 포승읍 여술4길 68,경기도 평택시 포승읍 도곡리 1141-1,36.9894282508,126.8460999682,경기도 평택시 포승공단로 267,경기도 평택시 포승읍 도곡리 717-1,23,17,16,1,0,0,,,,,,,,09:00,18:30,,,,,,http://www.kangsan.co/default/,,031-682-1212,2020-05-21,3910000,경기도 평택시
㈜강산렌터카,영업소,경기도 평택시 도일로 218,경기도 평택시 도일동 135-1,37.0561752782,127.1171090412,경기도 평택시 팽성읍 대사로 230,경기도 평택시 팽성읍 대사리 101-7,50,50,47,3,0,0,,,,,,,,09:00,18:30,,,,,,http://www.kangsan.co/default/,,031-618-0222,2020-05-21,3910000,경기도 평택시
㈜강산렌터카,영업소,경기도 평택시 도일로 218,경기도 평택시 도일동 135-1,37.0561752782,127.1171090412,경기도 평택시 방여울로 101,경기도 평택시 가재동 38,19,6,6,0,0,0,,,,,,,,09:00,18:30,,,,,,http://www.kangsan.co/default/,,031-618-0222,2020-05-21,3910000,경기도 평택시
㈜뉴이삭렌트카,주사업장,경기도 평택시 포승읍 포승원정길 41,경기도 평택시 포승읍 원정리 391-27,36.9957580511,126.8410814120,경기도 평택시 포승읍 평택항로 451,경기도 평택시 포승읍 원정리 441-4,152,142,127,15,0,0,,,,,,,,09:00,19:00,,,,,,http://www.newisrentcar.co.kr/pages/page_1.php,,031-683-0077,2020-05-21,3910000,경기도 평택시
㈜뉴이삭렌트카,영업소,경기도 평택시 화촌1길 11-6,경기도 평택시 통복동 339-17,36.9928525436,127.0753178978,경기도 평택시 화촌1길 11-6,경기도 평택시 통복동 339-17,57,24,20,4,0,0,,,,,,,,09:00,19:00,,,,,,http://www.newisrentcar.co.kr/pages/page_1.php,,031-651-0999,2020-05-21,3910000,경기도 평택시
㈜뉴이삭렌트카,영업소,경기도 평택시 안중읍 서동대로 1461,경기도 평택시 안중읍 현화리 649-7,36.9908411124,126.9137744682,경기도 평택시 안중읍 서동대로 1461,경기도 평택시 안중읍 현화리 649-7,38,37,37,0,0,0,,,,,,,,09:00,19:00,,,,,,http://www.newisrentcar.co.kr/pages/page_1.php,,031-683-4568,2020-05-21,3910000,경기도 평택시
㈜반도렌터카,주사업장,경기도 평택시 청북읍 원후사길 13,경기도 평택시 청북읍 후사리 361-4,37.0237441136,126.9419940601,경기도 평택시 청북읍 원후사길 13,경기도 평택시 청북읍 후사리 361-4,63,51,50,1,0,0,,,,,,,,10:00,19:00,,,,,,,,031-682-2586,2020-05-21,3910000,경기도 평택시
㈜반도렌터카,주사업장,경기도 평택시 청북읍 원후사길 13,경기도 평택시 청북읍 후사리 361-4,37.0237441136,126.9419940601,충청남도 천안시 서북구 성거읍 망향로 884,충청남도 천안시 서북구 성거읍 오목리 4-12,0,0,0,0,0,0,,,,,,,,10:00,19:00,,,,,,,,031-682-2586,2020-05-21,3910000,경기도 평택시
㈜아온,주사업장,경기도 평택시 산단로 271,경기도 평택시 칠괴동 52-10,37.0346324678,127.0970380367,경기도 평택시 산단로 271,경기도 평택시 칠괴동 52-10,233,106,105,1,0,0,,,,,,,,08:30,20:00,,,,,,http://www.aonerentcar.net/,,031-611-8735,2020-05-21,3910000,경기도 평택시
㈜아온,주사업장,경기도 평택시 산단로 271,경기도 평택시 칠괴동 52-10,37.0346324678,127.0970380367,경기도 평택시 월곡길 142-12,경기도 평택시 월곡동 173-2,0,0,0,0,0,0,,,,,,,,08:30,20:00,,,,,,http://www.aonerentcar.net/,,031-611-8735,2020-05-21,3910000,경기도 평택시
㈜조은렌트카,주사업장,경기도 평택시 평남로 210-19,경기도 평택시 통복동 241-3,36.9935175549,127.0724023303,경기도 평택시 평남로 210-19,경기도 평택시 통복동 241-3,46,23,21,2,0,0,,,,,,,,09:00,18:00,,,,,,,,031-653-4974,2020-05-21,3910000,경기도 평택시
㈜조은렌트카,영업소,경기도 평택시 삼남로 27-5,경기도 평택시 칠원동 85-9,37.0289284888,127.0994088966,경기도 평택시 삼남로 27-5,경기도 평택시 칠원동 85-9,26,19,18,1,0,0,,,,,,,,09:00,18:00,,,,,,,,031-665-5050,2020-05-21,3910000,경기도 평택시
㈜조은렌트카,영업소,경기도 평택시 탄현1로 107,경기도 평택시 서정동 555-14,37.0695785623,127.0534034982,경기도 평택시 탄현1로 107,경기도 평택시 서정동 555-14,23,11,11,0,0,0,,,,,,,,09:00,18:00,,,,,,,,031-667-2488,2020-05-21,3910000,경기도 평택시
㈜지에스렌트리스,주사업장,경기도 평택시 칠괴길 118-4,경기도 평택시 칠괴동 495-2,37.0256974573,127.0826596775,경기도 평택시 비전5로 21,경기도 평택시 비전동 1092-2,199,108,107,1,0,0,,,,,,,,09:00,18:00,,,,,,,,031-666-4982,2020-05-21,3910000,경기도 평택시
브이아이피렌트카㈜,영업소,경상북도 김천시 시청로 110,경상북도 김천시 신음동 483번지,36.138054,128.117554,경상북도 김천시 농공단지길 20-22,경상북도 김천시 신음동 44번지,,30,25,5,0,0,,,,,,,,09:00,18:00,09:00,18:00,09:00,18:00,,,홍현표,054-433-9999,2020-03-23,5060000,경상북도 김천시
㈜지에스렌트리스,주사업장,경기도 평택시 칠괴길 118-4,경기도 평택시 칠괴동 495-2,37.0256974573,127.0826596775,경기도 평택시 청북읍 벽동길 30-6,경기도 평택시 청북읍 백봉리 273-6,0,0,0,0,0,0,,,,,,,,09:00,18:00,,,,,,,,031-666-4982,2020-05-21,3910000,경기도 평택시
㈜지에스렌트리스,주사업장,경기도 평택시 칠괴길 118-4,경기도 평택시 칠괴동 495-2,37.0256974573,127.0826596775,,경기도 평택시 청북읍 백봉리 272-1,0,0,0,0,0,0,,,,,,,,09:00,18:00,,,,,,,,031-666-4982,2020-05-21,3910000,경기도 평택시
(주)조은렌트카,영업소,경상남도 통영시 안개4길 11-20,경상남도 통영시 무전동 994-6,34.85792491,128.4315301,경상남도 통영시 안개4길 11-20,경상남도 통영시 안개4길 11-20,20,11,9,2,0,0,,,,,,,,00:00,23:59,,,,,,,,055-647-0631,2020-06-22,5330000,경상남도 통영시
(주)성산렌트카,영업소,경상남도 통영시 무전7길 158,경상남도 통영시 무전동 852-10,34.86478437,128.422424,경상남도 통영시 무전7길 158,경상남도 통영시 무전7길 158,20,18,17,1,0,0,,,,,,,,00:00,23:59,,,,,,,,055-646-1999,2020-06-22,5330000,경상남도 통영시
(주)세정렌탈렌트카,영업소,경상남도 통영시 미나리길 78,경상남도 통영시 무전동 977-2,34.85736064,128.4338296,경상남도 통영시 미나리길 78,경상남도 통영시 미나리길 78,10,4,3,1,0,0,,,,,,,,09:00,18:00,,,,,,,,055-641-3999,2020-06-22,5330000,경상남도 통영시
(유)대한렌트카,영업소,경상남도 통영시 여황로 399-4,경상남도 통영시 북신동 702,34.85678256,128.4250417,경상남도 통영시 평인일주로 1106-22,경상남도 통영시 평인일주로 1106-22,20,11,10,1,0,0,,,,,,,,09:00,18:00,,,,,,,,055-644-6699,2020-06-22,5330000,경상남도 통영시
AJ렌트카,영업소,경상남도 통영시 안개4길 23-14,경상남도 통영시 무전동 996-1,34.85752713,128.432551,경상남도 통영시 안개4길 23-24,경상남도 통영시 안개4길 23-24,10,3,3,0,0,0,,,,,,,,09:00,19:00,,,,,,,,055-646-2545,2020-06-22,5330000,경상남도 통영시
(주)참신렌트카,영업소,경상남도 통영시 통영해안로 463,경상남도 통영시 정량동 276-1,34.849699,128.4314269,경상남도 통영시 장대길 49-10,경상남도 통영시 장대길 49-10,20,12,9,3,0,0,,,,,,,,00:00,23:59,,,,,,,,055-645-1500,2020-06-22,5330000,경상남도 통영시
(주)한성렌트카,영업소,경상남도 통영시 도천상가안길73,경상남도 통영시 도천동 52-18,34.8397721,128.4164839,경상남도 통영시 광도면 죽림2로 13,경상남도 통영시 광도면 죽림2로 13,10,4,3,1,0,0,,,,,,,,09:00,18:00,,,,,,,,055-756-1188,2020-06-22,5330000,경상남도 통영시
(주)우리렌트카,영업소,경상남도 통영시 통영해안로 279-2,경상남도 통영시 항남동 129-15,34.84071334,128.4251013,경상남도 통영시 향교옆길 121,경상남도 통영시 향교옆길 121,10,9,8,1,0,0,,,,,,,,08:00,20:00,,,,,,,,055-646-8259,2020-06-22,5330000,경상남도 통영시
(주)서경렌트카,영업소,경상남도 통영시 미나리길 78,경상남도 통영시 무전동 977-2,34.85736064,128.4338296,경상남도 통영시 용남면 삼화음촌길 17-42,경상남도 통영시 용남면 삼화음촌길 17-42,20,14,14,0,0,0,,,,,,,,09:00,18:00,,,,,,,,055-641-3999,2020-06-22,5330000,경상남도 통영시
(주)블루렌트카,영업소,경상남도 통영시 안개로 47,경상남도 통영시 무전동 408-7,34.86010073,128.4304525,경상남도 통영시 안개로 47,경상남도 통영시 안개로 47,10,8,8,0,0,0,,,,,,,,09:00,18:00,,,,,,,,055-648-8456,2020-06-22,5330000,경상남도 통영시
㈜동아렌트카,영업소,경상남도 통영시 여황로 399-4,경상남도 통영시 북신동 702,34.85678256,128.4250417,경상남도 통영시 안개4길 87,경상남도 통영시 안개4길 87,10,8,7,1,0,0,,,,,,,,00:00,23:59,,,,,,,,055-648-6661,2020-06-22,5330000,경상남도 통영시
㈜우주렌터카,영업소,경상남도 통영시 광도면 죽림4로 19-38,경상남도 통영시 광도면 죽림리 1570-32,34.88627876,128.4187167,경상남도 통영시 용남면 신죽3길 30,경상남도 통영시 용남면 신죽3길 30,6,1,1,0,0,0,,,,,,,,09:00,18:00,,,,,,,,055-648-0316,2020-06-22,5330000,경상남도 통영시
㈜토탈렌트카,영업소,경상남도 통영시 중앙로 234,경상남도 통영시 북신동 109-13,34.85135443,128.4280007,경상남도 통영시 용남면 신죽3길 30,경상남도 통영시 용남면 신죽3길 30,10,3,3,0,0,0,,,,,,,,09:00,18:00,,,,,,,,055-647-0317,2020-06-22,5330000,경상남도 통영시
뉴하이렌트카,영업소,경상남도 통영시 무전8길 22-27,경상남도 통영시 무전동 1033-4,34.85828238,128.4268826,경상남도 통영시 광도면 죽림2로 6-1,경상남도 통영시 광도면 죽림2로 6-1,10,3,3,0,0,0,,,,,,,,09:00,18:00,,,,,,,,055-853-7171,2020-06-22,5330000,경상남도 통영시
㈜쏘카,영업소,경상남도 통영시 광도면 죽림3로 27-80,경상남도 통영시 광도면 죽림리 1569-24,34.88357178,128.4171258,경상남도 통영시 광도면 죽림3로 27-80,경상남도 통영시 광도면 죽림3로 27-80,20,20,20,0,0,0,,,,,,,,09:00,23:59,,,,,,,,02-1611-3315,2020-06-22,5330000,경상남도 통영시
콜렌트카㈜,주사업장,"서울특별시 성동구 자동차시장1길 63, 302호(용답동, 서울빌딩)",,37.5608167226,127.0648031846,"서울특별시 성동구 자동차시장1길 63, 302호(용답동, 서울빌딩)",,,50,45,5,0,0,,,,,,,,00:00,24:00,,,,,,,박인수,02-2243-2727,2020-06-22,3030000,서울특별시 성동구
㈜에버렉스,주사업장,서울특별시 성동구 도선동 339,,37.564852,127.030572,서울특별시 성동구 도선동 339,,,52,47,5,0,0,,,,,,,,09:00,19:00,,,,,,,한재희,02-2294-5444,2020-06-22,3030000,서울특별시 성동구
㈜브이카,주사업장,"서울특별시 성동구 금호로 102, 305호(금호동1가, 벽산하이피아프라자)",,37.5516089732,127.0262729792,"서울특별시 성동구 금호로 102, 305호(금호동1가, 벽산하이피아프라자)",,,602,560,42,6,0,,,,,,,,08:30,21:00,,,,,,,김상우,02-468-6245,2020-06-22,3030000,서울특별시 성동구
청화렌트카㈜,주사업장,서울특별시 성동구 동일로 119(성수동2가),,37.5434313455,127.0642902507,서울특별시 성동구 동일로 119(성수동2가),,,307,214,93,0,0,,,,,,,,09:00,19:00,,,,,,,유제삼,02-747-7511,2020-06-22,3030000,서울특별시 성동구
㈜에프엔렌트카,주사업장,"서울특별시 성동구 자동차시장1길 94-25, 2층(용답동)",,37.5593125,127.067906,"서울특별시 성동구 자동차시장1길 94-25, 2층(용답동)",,,69,69,0,0,0,,,,,,,,09:00,19:30,,,,,,,김중권,02-465-3256,2020-06-22,3030000,서울특별시 성동구
㈜타오렌터카,주사업장,"서울특별시 성동구 동일로 143, 2층 203호(성수동2가)",,37.5454273824,127.065362,"서울특별시 성동구 동일로 143, 2층 203호(성수동2가)",,,50,50,0,0,0,,,,,,,,09:00,19:30,,,,,,,박창용,02-467-0068,2020-06-22,3030000,서울특별시 성동구
인모션㈜,주사업장,"서울특별시 성동구 광나루로6길 49, 504호(성수동2가, 모터씨티)",,37.5462097732,127.0647480,"서울특별시 성동구 광나루로6길 49, 504호(성수동2가, 모터씨티)",,,90,89,1,0,0,,,,,,,,09:30,19:00,,,,,,,석일남,02-1544-8216,2020-06-22,3030000,서울특별시 성동구
㈜해피네트웍스,주사업장,"서울특별시 성동구 자동차시장1길 94-47, 701호(용답동, 장안모터프라자)",,37.5590401,127.067539,"서울특별시 성동구 자동차시장1길 94-47, 701호(용답동, 장안모터프라자)",,,421,390,31,0,0,,,,,,,,08:00,20:00,,,,,,,김진원,070-4261-1334,2020-06-22,3030000,서울특별시 성동구
㈜드림렌터카,주사업장,"서울특별시 성동구 자동차시장1길 70, B호 C동 2층 나열 1-1(용답동)",,37.5603696391,127.0651468670,"서울특별시 성동구 자동차시장1길 70, B호 C동 2층 나열 1-1(용답동)",,,65,61,4,0,0,,,,,,,,00:00,24:00,,,,,,,김남영,02-1544-1861,2020-06-22,3030000,서울특별시 성동구
㈜지렌탈,주사업장,"서울특별시 성동구 자동차시장1길 70, B동 3층 가7호(용답동)",,37.5603696391,127.0651468670,"서울특별시 성동구 자동차시장1길 70, B동 3층 가7호(용답동)",,,57,45,12,0,0,,,,,,,,00:00,24:00,,,,,,,정상호,02-743-2900,2020-06-22,3030000,서울특별시 성동구
㈜도윤렌트카,주사업장,"서울특별시 성동구 성수이로 118, 607(성수동2가, 성수아카데미타워)",,37.5451437,127.057818,"서울특별시 성동구 성수이로 118, 607(성수동2가, 성수아카데미타워)",,,220,206,14,0,0,,,,,,,,00:00,24:00,,,,,,,최문환,02-467-2120,2020-06-22,3030000,서울특별시 성동구
(주)가인렌트카,영업소,경기도 남양주시 와부읍 덕소로 230-90,,37.57628137,127.222049,경기도 남양주시 조안면 삼봉리 157,,,33,29,4,0,0,,,,,,,,09:00,21:00,,,,,,,,031-576-1930,2020-06-29,3990000,경기도 남양주시
(주)뉴현대드림렌트카,영업소,경기도 남양주시 와부읍 덕소로 51,,37.58768322,127.2088313,경기도 남양주시 와부읍 덕소로 92-4 (와부주차장),,,13,12,1,0,0,,,,,,,,09:00,21:00,,,,,,,,031-577-1161,2020-06-29,3990000,경기도 남양주시
(주)유진렌트카,영업소,경기도 남양주시 홍유릉로248번길 5,,37.624913,127.1999638,"경기도 남양주시 진접읍 해딜예당1로 50-88, 4층(금곡리 1082)",,,56,52,4,0,0,,,,,,,,09:00,21:00,,,,,,,,031-528-5445,2020-06-29,3990000,경기도 남양주시
지렌탈,영업소,경기도 남양주시 경춘로 997,,37.63522734,127.2124175,경기도 남양주시 경춘로 1291(평내동 206-1),,,22,15,7,0,0,,,,,,,,09:00,21:00,,,,,,,,031-511-8500,2020-06-29,3990000,경기도 남양주시
㈜글로리렌트카,영업소,경기도 남양주시 경춘로 1287,,37.64932489,127.2357281,경기도 남양주시 화도읍 북한강로1485(금남리 332-14번지),,,8,8,0,0,0,,,,,,,,09:00,21:00,,,,,,,,031-573-7441,2020-06-29,3990000,경기도 남양주시
에이제이렌터카㈜,영업소,경기도 남양주시 경춘로 1260,,37.64666345,127.2347951,경기도 남양주시 수동면 내방리 326-7,,,3,3,0,0,0,,,,,,,,09:00,21:00,,,,,,,,031-556-3377,2020-06-29,3990000,경기도 남양주시
㈜래디우스랩,영업소,"경기도 남양주시 진접읍 해밀예당3로 67, (휴먼시아16단지아파트)",,37.71477414,127.1971565,"경기도 남양주시 진접읍 혜밀예당3로 67(16, 17단지)",,,8,8,0,0,0,,,,,,,,09:00,21:00,,,,,,,,031-571-1719,2020-06-29,3990000,경기도 남양주시
(자)기풍렌트카,주사업장,충청남도 공주시 무령로 337-1,충청남도 공주시 신관동 608,36.4575703590,127.1364525051,충청남도 공주시 계룡면 동뒤길 17-10,충청남도 공주시 계룡면 하대리 1197-2,3762,264,231,33,0,0,,,,,,,,09:00,18:00,,,,,,,김재호,041-881-1527,2020-03-25,4500000,충청남도 공주시
(주)거성렌트카,영업소,경기도 남양주시 퇴계원면 퇴계원로 199,,37.66279401,127.148697,경기도 남양주시 남양주시 마치로 49 (호평동 23-1),,,25,25,0,0,0,,,,,,,,09:00,21:00,,,,,,,,031-551-0041,2020-06-29,3990000,경기도 남양주시
㈜아이에스렌터카,영업소,경기도 남양주시 별내5로5번길 54,,37.65223247,127.1150607,경기도 남양주시 의정부시 민락동 815,,,8,8,0,0,0,,,,,,,,09:00,21:00,,,,,,,,031-575-7850,2020-06-29,3990000,경기도 남양주시
신협우리들렌트카,영업소,경기도 남양주시 수동면 모꼬지로311번길 39-30,,37.69069608,127.3533052,경기도 남양주시 모꼬지로311번길 39-30,,,45,43,2,0,0,,,,,,,,09:00,21:00,,,,,,,,02-425-0051,2020-06-29,3990000,경기도 남양주시
초이스렌트카,영업소,경기도 남양주시 화도읍 경춘로 2030,,37.65160952,127.3146324,"경기도 남양주시 해밀예당1로 50-88 랜드타워 3층, 4층, 5층 501호 일부",,,32,31,1,0,0,,,,,,,,09:00,21:00,,,,,,,,031-527-4443,2020-06-29,3990000,경기도 남양주시
초이스렌트카,영업소,"경기도 남양주시 경춘로 722 (일패동, 청수아파트 이동 청수상가 2층 206호)",,37.62313917,127.1872087,"경기도 남양주시 해밀예당1로 50-88 랜드타워 3층, 5층 501호 일부",,,10,10,0,0,0,,,,,,,,09:00,21:00,,,,,,,,031-527-4443,2020-06-29,3990000,경기도 남양주시
참신렌트카여행사,영업소,경기도 남양주시 화도읍 경춘로 2156,,37.65271627,127.3277415,경기도 남양주시 수동면 지둔리 489-6,,,19,19,0,0,0,,,,,,,,09:00,21:00,,,,,,,,042-485-5007,2020-06-29,3990000,경기도 남양주시
㈜씨엔에스어울림렌트카,영업소,경기도 남양주시 별내면 송산로마전길 11-5,,37.69935975,127.1266903,경기도 남양주시 마치로 49(호평동 23-1),,,42,39,3,0,0,,,,,,,,09:00,21:00,,,,,,,,031-528-0967,2020-06-29,3990000,경기도 남양주시
㈜포시즌렌트카,영업소,경기도 남양주시 별내중앙로 36-23,,37.64645479,127.126197,경기도 남양주시 송산로 153 오토스퀘어 주차장,,,3,3,0,0,0,,,,,,,,09:00,21:00,,,,,,,,031-575-5557,2020-06-29,3990000,경기도 남양주시
타이거운수㈜,영업소,경기도 남양주시 진건읍 진건우회로19번길 4,,37.65039107,127.1737652,경기도 남양주시 진건우회로19번길 4 외 3필지,,,3,3,0,0,0,,,,,,,,09:00,21:00,,,,,,,,031-575-2900,2020-06-29,3990000,경기도 남양주시
㈜새롬오토랜드,영업소,경기도 남양주시 진건읍 경춘북로 738-1,,37.64982287,127.1653966,경기도 남양주시 남양주시 마치로 49 (호평동 23-1),,,11,10,1,0,0,,,,,,,,09:00,21:00,,,,,,,,031-528-4972,2020-06-29,3990000,경기도 남양주시
㈜라이프렌터카,영업소,경기도 남양주시 가운로2길 75,,37.5990788,127.1578919,경기도 남양주시 의정부시 부용로95번길 18,,,22,15,7,0,0,,,,,,,,09:00,21:00,,,,,,,,031-576-5600,2020-06-29,3990000,경기도 남양주시
㈜에이치케이렌트카,영업소,경기도 남양주시 금곡로 9,,37.633653,127.2039162,경기도 남양주시 남양주시 조안면 진중리 225-3,,,3,3,0,0,0,,,,,,,,09:00,21:00,,,,,,,,031-595-0258,2020-06-29,3990000,경기도 남양주시
㈜에이치케이렌트카,영업소,경기도 남양주시 진건읍 사릉로 568,,37.66669142,127.1689431,경기도 남양주시 경춘로 1969-16,,,7,7,0,0,0,,,,,,,,09:00,21:00,,,,,,,,031-529-0258,2020-06-29,3990000,경기도 남양주시
㈜에이치케이렌트카,영업소,경기도 남양주시 경춘로 1260,,37.64666345,127.2347951,경기도 남양주시 남양주시 수동면 내방리 326-7,,,4,4,0,0,0,,,,,,,,09:00,21:00,,,,,,,,031-592-8586,2020-06-29,3990000,경기도 남양주시
수렌트카㈜,영업소,"경기도 남양주시 별내5로23번길 4-49, 102호",,37.6516772312,127.1152955022,"남양주시 별내5로5번길 54, 3층",,,0,0,0,0,0,,,,,,,,09:00,21:00,,,,,,,,070-7543-8486,2020-06-29,3990000,경기도 남양주시
삼성렌트카,영업소,경상남도 남해군 남해읍 남해대로 2849-1,경상남도 남해군 남해읍 북변리 443-3,34.84282691,127.898503,경상남도 남해군 남해읍 남해대로 2849,,30,16,12,4,0,0,,,,,,,,08:30,19:00,08:30,19:00,08:30,19:00,없음,sfe72.com,임양춘,055-864-8300,2020-06-22,5430000,경상남도 남해군
서경렌트카,영업소,경상남도 남해군 남해읍 화전로122번길 37-4,경상남도 남해군 남해읍 북변리 467-1,34.84259877,127.8981506,경상남도 남해군 고현면 대사리 904-7,,40,18,14,4,0,0,,,,,,,,08:30,19:00,08:30,19:00,08:30,19:00,없음,www.남해렌트카.com,김진숙,055-862-4242,2020-06-22,5430000,경상남도 남해군
하이렌트카,영업소,경상남도 남해군 남해읍 남해대로 2847,경상남도 남해군 남해읍 북변리 440-4,34.84251999,127.8985652,경상남도 남해군 남해읍 남해대로 2734,,45,29,25,4,0,0,,,,,,,,08:30,19:00,08:30,19:00,08:30,19:00,없음,남해new하이렌트카.com,김영자,055-863-0303,2020-06-22,5430000,경상남도 남해군
롯데렌탈(주),영업소,경상남도 통영시 광도면 남해안대로 1039,경상남도 통영시 광도면 죽림리 257-7,34.88630476,128.4143201,경상남도 통영시 무전대로 61,경상남도 통영시 무전대로 61,2,2,2,0,0,0,,,,,,,,09:00,18:00,,,,,,,,02-3404-9876,2020-06-22,5330000,경상남도 통영시
(주)세종통운렌트카,영업소,경상남도 통영시 무전7길 48,경상남도 통영시 무전동 684,34.86207963,128.4274162,경상남도 통영시 무전7길 48,경상남도 통영시 무전7길 48,20,20,18,2,0,0,,,,,,,,00:00,23:59,,,,,,,,055-644-0022,2020-06-22,5330000,경상남도 통영시
(합자)경인렌트카,영업소,"경기도 용인시 기흥구 용구대로2325번길 40-5, 102호(마북동)","경기도 용인시 기흥구 마북동 502-233, 102호",37.29609038,127.1054121,경기도 용인시 기흥구 용구대로2325번길 40-5(마북동),경기도 용인시 기흥구 마북동 502-90,,30,29,1,0,0,,,,,,,,09:00,18:00,,,,,,,권순석,032-525-4444,2020-06-30,3540000,인천광역시 부평구
(합자)경인렌트카,영업소,"강원도 평창군 평창읍 백오로 6, 2층","강원도 평창군 평창읍 하리278-2, 2층",37.36778203,128.3903006,강원도 평창군 평창읍 종부1길 55-5,강원도 평창군 평창읍 종부리 471,,12,11,1,0,0,,,,,,,,09:00,18:00,,,,,,,권순석,032-525-4444,2020-06-30,3540000,인천광역시 부평구
(합자)경인렌트카,영업소,"경기도 포천시 창수면 포천로2895번길 16, 2층","경기도 포천시 창수면 추동리 607-2, 2층",38.00054675,127.1654161,경기도 포천시 창수면 포천로2895번길 16,경기도 포천시 창수면 추동리 607-2,,12,12,0,0,0,,,,,,,,09:00,18:00,,,,,,,권순석,032-525-4444,2020-06-30,3540000,인천광역시 부평구
한솔네트웍스㈜,주사업장,"인천광역시 부평구 장제로 161, 3층 301-1호(부평동,두름파크)",인천광역시 부평구 부평동 377-7 두름파크 3층 301-1호,37.49998645,126.7302544,인천광역시 서구 봉수대로 1481(금곡동),인천광역시 서구 금곡동 217,,73,70,3,0,0,,,,,,,,09:00,20:00,09:00,20:00,09:00,20:00,,https://hansolnetworks.com,부수현,032-519-7200,2020-06-30,3540000,인천광역시 부평구
한솔네트웍스㈜,영업소,인천광역시 부평구 부평대로 283 부평우림라이온스밸리 제지1층 A동 B115-12호(23호실),인천광역시 부평구 청천동 425 부평우림라이온스밸리 제지1층 A동 B115-12호(23호실),37.5176369011,126.7201100106,인천광역시 연수구 테크노파크로 164 송도센트럴공원주차장,인천광역시 연수구 송도동 24-5 송도센트럴공원주차장,,8,8,0,0,0,,,,,,,,09:00,20:00,09:00,20:00,09:00,20:00,,https://hansolnetworks.com,부수현,032-519-7200,2020-06-30,3540000,인천광역시 부평구
한솔네트웍스㈜,영업소,경기도 김포시 양촌읍 양곡우회로 94 가동 101호,"경기도 김포시 양촌읍 양곡리 194-3, 가동 101호",37.66477101,126.6283798,경기도 김포시 양촌읍 양곡우회로 94,경기도 김포시 양촌읍 양곡리 194-3,,18,18,0,0,0,,,,,,,,09:00,20:00,09:00,20:00,09:00,20:00,,https://hansolnetworks.com,부수현,032-519-7200,2020-06-30,3540000,인천광역시 부평구
한솔네트웍스㈜,영업소,"인천광역시 계양구 계양문화로 54, 대산월드프라자 10층 4-1호(계산동)",인천광역시 계양구 계산동 1081-7 대산월드프라자 10층 4-1호,37.53549714,126.7368427,인천광역시 연수구 테크노파크로 164 송도센트럴공원주차장,인천광역시 연수구 송도동 24-5 송도센트럴공원주차장,,10,10,0,0,0,,,,,,,,09:00,20:00,09:00,20:00,09:00,20:00,,https://hansolnetworks.com,부수현,032-519-7200,2020-06-30,3540000,인천광역시 부평구
(주)26렌트카,영업소,경기도 남양주시 경춘로 414-5,,37.60685671,127.1601462,경기도 남양주시 경기도 남양주시 와부읍 팔당리 237-8외 2 (대명주차장),,,1,1,0,0,0,,,,,,,,09:00,21:00,,,,,,,,031-568-2626,2020-06-29,3990000,경기도 남양주시
한솔네트웍스㈜,영업소,"인천광역시 계양구 아나지로 332, 101동 116호(작전동, 계양 우림카이저팰리스)",인천광역시 계양구 작전동 392-12 계양 우림카이저팰리스 101동 116호,37.52491032,126.728056,인천광역시 연수구 테크노파크로 164 송도센트럴공원주차장,인천광역시 연수구 송도동 24-5 송도센트럴공원주차장,,4,4,0,0,0,,,,,,,,09:00,20:00,09:00,20:00,09:00,20:00,,https://hansolnetworks.com,부수현,032-519-7200,2020-06-30,3540000,인천광역시 부평구
한솔네트웍스㈜,영업소,경기도 파주시 시청로 123-1 신안실크밸리 상가동 103호(아동동),경기도 파주시 아동동 897 신안실크밸리 상가동 103호,37.7657743079,126.7794421859,경기도 파주시 책향기로 423 두손비채주차타워 4층(동패동),경기도 파주시 동패동 1701 두손비채주차타워 4층,,3,3,0,0,0,,,,,,,,09:00,20:00,09:00,20:00,09:00,20:00,,https://hansolnetworks.com,부수현,032-519-7200,2020-06-30,3540000,인천광역시 부평구
한솔네트웍스㈜,영업소,인천광역시 남동구 선수촌공원로23번길 11 네이쳐프라자 702-42호(구월동),인천광역시 남동구 구월동 1542-1 네이쳐프라자 702-42호,37.4408759005,126.7086531839,인천광역시 서구 크리스탈로102번길 22 경연타워(청라동),인천광역시 서구 청라동 151-4 경연타워,,4,4,0,0,0,,,,,,,,09:00,20:00,09:00,20:00,09:00,20:00,,https://hansolnetworks.com,부수현,032-519-7200,2020-06-30,3540000,인천광역시 부평구
한솔네트웍스㈜,영업소,경기도 광명시 광명로 364(노온사동),경기도 광명시 노온사동 638,37.43356797,126.8474234,"경기도 광명시 서독로 392, 광명역D환승파크주차장",경기도 광명시 일직동 380-10 광명역D환승주차장,,0,0,0,0,0,,,,,,,,09:00,20:00,09:00,20:00,09:00,20:00,,https://hansolnetworks.com,부수현,032-519-7200,2020-06-30,3540000,인천광역시 부평구
한솔네트웍스㈜,영업소,"인천광역시 계양구 계산로 30, 103호(계산동)",인천광역시 계양구 계산동 980-1,37.54090751,126.7184299,인천광역시 서구 크리스탈로102번길 22 경연타워(청라동),인천광역시 서구 청라동 151-4 경연타워,,5,5,0,0,0,,,,,,,,09:00,20:00,09:00,20:00,09:00,20:00,,https://hansolnetworks.com,부수현,032-519-7200,2020-06-30,3540000,인천광역시 부평구
한솔네트웍스㈜,영업소,"인천광역시 미추홀구 경인북길303번길 16, 1층(용현동)","인천광역시 미추홀구 용현동 114-24, 1층",37.45625939,126.6643562,인천광역시 서구 크리스탈로102번길 22 경연타워(청라동),인천광역시 서구 청라동 151-4 경연타워,,3,3,0,0,0,,,,,,,,09:00,20:00,09:00,20:00,09:00,20:00,,https://hansolnetworks.com,부수현,032-519-7200,2020-06-30,3540000,인천광역시 부평구
한솔네트웍스㈜,영업소,"인천광역시 서구 북항로32번길 28, 303호(원창동,대건프라자)",인천광역시 서구 원창동 381-49 대건프라자 303호,37.50903127,126.6452545,인천광역시 서구 크리스탈로102번길 22 경연타워(청라동),인천광역시 서구 청라동 151-4 경연타워,,0,0,0,0,0,,,,,,,,09:00,20:00,09:00,20:00,09:00,20:00,,https://hansolnetworks.com,부수현,032-519-7200,2020-06-30,3540000,인천광역시 부평구
㈜하카,주사업장,"인천광역시 부평구 항동로 158, 105호(일신동)",인천광역시 부평구 일신동 79-108 105호,37.48106393,126.7509538,인천광역시 부평구 충선로203번길 4(삼산동),인천광역시 부평구 삼산동 460-5,,50,50,0,0,0,,,,,,,,09:00,18:00,09:00,18:00,09:00,18:00,,https://www.haca.co.kr,이종남,1661-5161,2020-06-30,3540000,인천광역시 부평구
(주)새누리렌트카,주사업장,경기도 남양주시 진건읍 진건오남로 27-2,,37.6531117521,127.1787803222,양평군 강상면 양평대교길83,,,15,15,0,0,0,,,,,,,,09:00,21:00,,,,,,,,031-576-5600,2020-06-29,3990000,경기도 남양주시
(주)명성렌트카,주사업장,경기도 남양주시 사릉로34번길 51,,37.63629479,127.2140294,경기도 남양주시 진접읍 금강로 1845,,,51,47,4,0,0,,,,,,,,09:00,21:00,,,,,,,,031-559-9596,2020-06-29,3990000,경기도 남양주시
(주)에스에스렌터카,주사업장,경기도 남양주시 늘을2로14번길 5,,37.65411813,127.2445689,경기도 남양주시 수동면 내방리 326-7,,,72,72,0,0,0,,,,,,,,09:00,21:00,,,,,,,,031-511-0550,2020-06-29,3990000,경기도 남양주시
㈜신공항렌트카,주사업장,경기도 남양주시 금곡로 64,,37.63426909,127.2101807,경기도 남양주시 포천시 이동면 화동로 1779-109,,,76,10,66,0,0,,,,,,,,09:00,21:00,,,,,,,,1661-5037,2020-06-29,3990000,경기도 남양주시
㈜솔렌트카,주사업장,경기도 남양주시 경춘로양골3길 24,,37.63781266,127.2156743,"경기도 남양주시 해밀예당1로 50-88, 501호 일부(992㎡)",,,96,96,0,0,0,,,,,,,,09:00,21:00,,,,,,,,031-511-9916,2020-06-29,3990000,경기도 남양주시
하나렌트카,영업소,경기도 남양주시 경춘로 1298,,37.64913167,127.2368335,경기도 남양주시 퇴계원면 퇴계원리 281-10 제일주차장,,,11,11,0,0,0,,,,,,,,09:00,21:00,,,,,,,,031-591-8272,2020-06-29,3990000,경기도 남양주시
세원렌트카,영업소,경기도 남양주시 화도읍 경춘로 1781,,37.65655346,127.288076,경기도 남양주시 화도읍 가곡로 12,,,11,10,1,0,0,,,,,,,,09:00,21:00,,,,,,,,031-559-0027,2020-06-29,3990000,경기도 남양주시
케이네트웍스㈜,영업소,"인천광역시 중구 인중로63번길 41, 2층(신흥동3가)","인천광역시 중구 신흥동3가 26-66, 2층",37.46261673,126.6351156,인천광역시 부평구 충선로203번길 4(삼산동),인천광역시 부평구 삼산동 460-5,,0,0,0,0,0,,,,,,,,09:00,18:00,,,,,,https://www.krent.co.kr,이종남,1588-9325,2020-06-30,3540000,인천광역시 부평구
(합자)경인렌트카,주사업장,인천광역시 부평구 원적로 416번길 50 (산곡동),인천광역시 부평구 산곡동 284-11,37.5012068,126.7113593,인천광역시 부평구 원적로 416번길 50 (산곡동),인천광역시 부평구 산곡동 284-11,,98,93,5,0,0,,,,,,,,09:00,18:00,,,,,,,권순석,032-525-4444,2020-06-30,3540000,인천광역시 부평구
(합자)경인렌트카,영업소,인천광역시 옹진군 백령면 사곶로 73,인천광역시 옹진군 백령면 진촌리 450,37.95548506,124.7231808,인천광역시 옹진군 백령면 사곶로 73,인천광역시 옹진군 진촌리 450,,10,8,2,0,0,,,,,,,,09:00,18:00,,,,,,,권순석,032-525-4444,2020-06-30,3540000,인천광역시 부평구
(합자)경인렌트카,영업소,경기도 수원시 영통구 매영로248번길 20(원천동),경기도 수원시 영통구 원천동 405-1,37.25917384,127.0638855,경기도 수원시 영통구 매영로248번길 20(원천동),경기도 수원시 영통구 원천동 405-1,,80,78,2,0,0,,,,,,,,09:00,18:00,,,,,,,권순석,032-525-4444,2020-06-30,3540000,인천광역시 부평구
(합자)경인렌트카,영업소,"경기도 화성시 정남면 신백길 195-1, 101호","경기도 화성시 정남면 발산리 403-6, 101호",37.16886138,126.9827325,경기도 화성시 정남면 만년로 645,경기도 화성시 괘랑리 265-16,,3,3,0,0,0,,,,,,,,09:00,18:00,,,,,,,권순석,032-525-4444,2020-06-30,3540000,인천광역시 부평구
(합자)경인렌트카,영업소,"인천광역시 남동구 남동대로 742, 101호(구월동, 대화빌딩)","인천광역시 남동구 구월동 1191-3, 101호",37.44849269,126.7077783,인천광역시 연수구 테크노파크로 164,인천광역시 연수구 송도동 24-5,,13,11,2,0,0,,,,,,,,09:00,18:00,,,,,,,권순석,032-525-4444,2020-06-30,3540000,인천광역시 부평구
(합자)경인렌트카,영업소,강원도 춘천시 춘천로 58(효자동),"강원도 춘천시 효자동 590-2,4,45",37.86961046,127.7244961,강원도 춘천시 춘천로 58(효자동),"강원도 춘천시 효자동 590-3,4,45",,8,5,3,0,0,,,,,,,,09:00,18:00,,,,,,,권순석,032-525-4444,2020-06-30,3540000,인천광역시 부평구
(합자)경인렌트카,영업소,"인천광역시 부평구 장제로 373번길 21, 1층 (갈산동)","인천광역시 부평구 갈산동 35-3, 1층",37.51875429,126.731033,인천광역시 연수구 테크노파크로 164,인천광역시 연수구 송도동 24-5,,44,38,6,0,0,,,,,,,,09:00,18:00,,,,,,,권순석,032-525-4444,2020-06-30,3540000,인천광역시 부평구
(합자)경인렌트카,영업소,"서울특별시 영등포구 시흥대로173길 13, 제1층 제105-2호(대림동,신대림자이)","서울특별시 영등포구 대림동 1121, 신대림자이 제1층 제105-2호",37.48658037,126.9023397,서울특별시 양천구 신월로 358,"서울특별시 양천구 신정동 1018-3,11 법마을 공영주차장",,8,8,0,0,0,,,,,,,,09:00,18:00,,,,,,,권순석,032-525-4444,2020-06-30,3540000,인천광역시 부평구
(합자)경인렌트카,영업소,"서울특별시 송파구 충민로 66, YB동 1047호(문정동, 가든파이브라이프)",서울특별시 송파구 문정동 634 가든파이브라이프 YB동 1047호,37.47761304,127.1249629,"서울특별시 은평구 연서로35길 37, 연광초등학교지하공영주차장(불광동)",서울특별시 은평구 불광동 400-6 연광초등학교지하공영주차장,,13,12,1,0,0,,,,,,,,09:00,18:00,,,,,,,권순석,032-525-4444,2020-06-30,3540000,인천광역시 부평구
(주)쏘카,영업소,경기도 남양주시 호평로46번길 14,,37.6547198660,127.2446252233,"경기도 남양주시 조안면 진중리 225-3(운길산역주차장), 의정부시 장곡로 620",,,77,77,0,0,0,,,,,,,,09:00,21:00,,,,,,,,02-1661-3315,2020-06-29,3990000,경기도 남양주시
(합자)경인렌트카,영업소,"인천광역시 계양구 새벌로 112, 410-2호(효성동, 현대프라자)",인천광역시 계양구 효성동 198-1외 3필지 현대프라자 410-2호,37.52706239,126.7175135,인천광역시 연수구 테크노파크로 164,인천광역시 연수구 송도동 24-5,,14,14,0,0,0,,,,,,,,09:00,18:00,,,,,,,권순석,032-525-4444,2020-06-30,3540000,인천광역시 부평구
(합자)경인렌트카,영업소,인천광역시 계양구 길마로 19 (효성동),인천광역시 계양구 효성동 34,37.5343295,126.7077469,인천광역시 계양구 길마로 19 (효성동),"인천광역시 계양구 효성동 34, 34-93",,10,10,0,0,0,,,,,,,,09:00,18:00,,,,,,,권순석,032-525-4444,2020-06-30,3540000,인천광역시 부평구
(합자)경인렌트카,영업소,"인천광역시 옹진군 덕적면 덕적북로 66, 2층","인천광역시 옹진군 덕적면 진리 26, 2층",37.22785793,126.1508913,인천광역시 옹진군 덕적면 덕적북로 66,인천광역시 옹진군 덕적면 진리 28-2,,2,0,2,0,0,,,,,,,,09:00,18:00,,,,,,,권순석,032-525-4444,2020-06-30,3540000,인천광역시 부평구
(합자)경인렌트카,영업소,경기도 수원시 권선구 서수원로 143-10(오목천동),경기도 수원시 권선구 오목천동 557-4,37.23931011,126.9695217,경기도 수원시 권선구 서수원로 143-10(오목천동),경기도 수원시 권선구 오목천동 557-4,,13,13,0,0,0,,,,,,,,09:00,18:00,,,,,,,권순석,032-525-4444,2020-06-30,3540000,인천광역시 부평구
(합자)경인렌트카,영업소,"서울특별시 마포구 독막로 230, 3층 316호(신수동, 우리빌딩)",서울특별시 마포구 신수동 47-17,37.54697223,126.9390200486,,"서울특별시 양천구 신월동 482-11,12 당곡공영주차장",,11,8,3,0,0,,,,,,,,09:00,18:00,,,,,,,권순석,032-525-4444,2020-06-30,3540000,인천광역시 부평구
(합자)경인렌트카,영업소,강원도 원주시 현충로 38(태장동),강원도 원주시 태장동 698-14,37.35912456,127.9549488,강원도 원주시 현충로 38(태장동),강원도 원주시 태장동 698-14,,25,23,2,0,0,,,,,,,,09:00,18:00,,,,,,,권순석,032-525-4444,2020-06-30,3540000,인천광역시 부평구
(합자)경인렌트카,영업소,"인천광역시 서구 새오개로68번길 3-1, 1층 102호(신현동)","인천광역시 서구 신현동 173-64, 1층 102호",37.51624838,126.6656758,인천광역시 연수구 테크노파크로 164,인천광역시 연수구 송도동 24-5,,11,11,0,0,0,,,,,,,,09:00,18:00,,,,,,,권순석,032-525-4444,2020-06-30,3540000,인천광역시 부평구
(합자)경인렌트카,영업소,"인천광역시 부평구 원적로 471번길 10, 1층(부평동)","인천광역시 부평구 부평동 64-18, 1층",37.50378796,126.7191212,인천광역시 연수구 테크노파크로 164,인천광역시 연수구 송도동 24-5,,5,5,0,0,0,,,,,,,,09:00,18:00,,,,,,,권순석,032-525-4444,2020-06-30,3540000,인천광역시 부평구
(합자)경인렌트카,영업소,인천광역시 미추홀구 경원대로781번길 57(주안동),인천광역시 미추홀구 주안동 1514,37.45243811,126.6862942,인천광역시 연수구 테크노파크로 164,인천광역시 연수구 송도동 24-5,,15,15,0,0,0,,,,,,,,09:00,18:00,,,,,,,권순석,032-525-4444,2020-06-30,3540000,인천광역시 부평구
(합자)경인렌트카,영업소,"인천광역시 미추홀구 경인로 392, 2층 44호(주안동, 경인상가)",인천광역시 미추홀구 주안동 431-1 경인상가 제2층 44호,37.45803402,126.6831603,인천광역시 연수구 테크노파크로 164,인천광역시 연수구 송도동 24-5,,12,12,0,0,0,,,,,,,,09:00,18:00,,,,,,,권순석,032-525-4444,2020-06-30,3540000,인천광역시 부평구
(합자)경인렌트카,영업소,"인천광역시 미추홀구 매소홀로 473, 제지하층 제11호(학익동)",인천광역시 미추홀구 학익동 52-5 제지하층 제11호,37.43975696,126.6748393,인천광역시 연수구 테크노파크로 164,인천광역시 연수구 송도동 24-5,,16,16,0,0,0,,,,,,,,09:00,18:00,,,,,,,권순석,032-525-4444,2020-06-30,3540000,인천광역시 부평구
(합자)경인렌트카,영업소,"경기도 안양시 동안구 관평로 227, 지하층 21호(관양동, 한가람아파트상가동)",경기도 안양시 동안구 관양동 1589-1 한가람아파트 상가동 지층 21호,37.39675318,126.9578348,경기도 안양시 동안구 시민대로 312 평촌칼라힐빌딩(평천동) 주차장,경기도 안양시 동안구 평촌동 897 평촌칼라힐주차빌딩,,18,17,1,0,0,,,,,,,,09:00,18:00,,,,,,,권순석,032-525-4444,2020-06-30,3540000,인천광역시 부평구
㈜우리렌트카 서산영업소,영업소,충청남도 서산시 읍내6로 33,,36.7798164279,126.4520548700,충청남도 서산시 읍내6로 33,,,7,6,1,0,0,,,,,,,,09:00,18:00,,,,,,,,041-664-1680,2020-05-31,4530000,충청남도 서산시
㈜쏘카 서산점,영업소,,충청남도 서산시 동문동 909-12,36.780523,126.457477,충청남도 서산시 동문동 909-12,,,9,9,0,0,0,,,,,,,,09:00,18:00,,,,,,,,1661-3315,2020-05-31,4530000,충청남도 서산시
(주)참신렌트카여행사,영업소,충청남도 서산시 운암로 80-8 (수석동),,36.782027,126.498883,충청남도 서산시 운암로 80-8 (수석동,,,8,8,0,0,0,,,,,,,,09:00,18:00,,,,,,,,041-000-0000,2020-05-31,4530000,충청남도 서산시
(주)한진,영업소,경상북도 영천시 금완로 14-2,,35.96047696,128.9295277,영천시 고경면 거곡로 227-33,,,0,0,0,0,0,,,,,,,,09:00,18:00,,,,,,,,054-336-4100,2020-06-26,5100000,경상북도 영천시
(주)오케이렌트카,영업소,경상북도 영천시 장수로 6,,35.96342597,128.9229757,경상북도 영천시 천문로 588,,,10,9,1,0,0,,,,,,,,09:00,18:00,,,,,,,,054-331-4565,2020-06-26,5100000,경상북도 영천시
(주)경일알씨,영업소,경상북도 영천시 최무선로 323,,35.96880195,128.9342883,경상북도 영천시 최무선로 323,,,2,2,0,0,0,,,,,,,,09:00,18:00,,,,,,,,054-332-2929,2020-06-26,5100000,경상북도 영천시
(주)새한글로벌,영업소,경상북도 영천시 담안3길 39,,35.96193766,128.9265529,경상북도 영천시 담안3길 39,,,14,13,1,0,0,,,,,,,,09:00,18:00,,,,,,,,054-333-8100,2020-06-26,5100000,경상북도 영천시
(주)인스렌터카,영업소,경상북도 영천시 금호읍 고수골길 26,,35.95328529,128.9045546,경상북도 영천시 금호읍 고수골길 26,,,5,4,1,0,0,,,,,,,,09:00,18:00,,,,,,,,054-334-7799,2020-06-26,5100000,경상북도 영천시
엠알렌터카(주),영업소,경상북도 영천시 고경면 호국로 374,,35.97967885,128.9780999,경상북도 영천시 고경면 호국로 374,,,55,53,2,0,0,,,,,,,,09:00,18:00,,,,,,,,054-336-9080,2020-06-26,5100000,경상북도 영천시
(주)글로벌금오렌트카,영업소,경상북도 영천시 도들앞길 67-20,,35.94047013,128.925216,경상북도 영천시 도들앞길 67-20,,,18,13,5,0,0,,,,,,,,09:00,18:00,,,,,,,,054-337-5521,2020-06-26,5100000,경상북도 영천시
(주)극동오토렌탈,영업소,경상북도 영천시 금호읍 금호로 361,,35.9412341247,128.8985298775,경상북도 영천시 금호읍 금호로 361,,,13,12,1,0,0,,,,,,,,09:00,18:00,,,,,,,,054-331-4949,2020-06-26,5100000,경상북도 영천시
㈜진해군항렌트카,영업소,경상남도 거제시 장평로 69(장평동),,34.890994,128.609576,경상남도 거제시 사등면 지석2길 20,,,11,7,4,0,0,,,,,,,,09:00,21:00,,,,,,,,055-637-4112,2020-06-29,5370000,경상남도 거제시
롯데렌탈,영업소,경상남도 거제시 거제중앙로 1796(고현동),,34.879113,128.628134,경상남도 거제시 고현동 405-15,,,284,272,12,0,0,,,,,,,,09:00,20:00,,,,,,,,055-637-8009,2020-06-29,5370000,경상남도 거제시
㈜오케이렌트카,영업소,경상남도 거제시 장평3로2길 1(장평동),,34.88978744,128.609389,경상남도 거제시 장평동 1079-5,,,6,4,2,0,0,,,,,,,,08:30,19:00,,,,,,,,055-636-7877,2020-06-29,5370000,경상남도 거제시
에스케이렌트카㈜,영업소,"경상남도 거제시 거제대로 3736, 3층(옥포동)",,34.89019409,128.6904131,경상남도 거제시 연초면 송정5길 112-7,,,131,125,6,0,0,,,,,,,,08:00,19:30,,,,,,,,055-688-4615,2020-06-29,5370000,경상남도 거제시
㈜거제곰두리렌트카,주사업장,경상남도 거제시 연초면 효촌길 20,,34.903588,128.6474048,경상남도 거제시 연초면 효촌길 20,,,69,58,11,0,0,,,,,,,,07:00,18:00,,,,,,,,055-633-7030,2020-06-29,5370000,경상남도 거제시
㈜천마렌트카,주사업장,경상남도 거제시 연초면 송정5길 8,,34.91378221,128.6755571,경상남도 거제시 연초면 송정5길 2-6,,,199,195,4,0,0,,,,,,,,08:30,18:30,,,,,,,,055-636-1234,2020-06-29,5370000,경상남도 거제시
㈜우리렌트카,영업소,경상남도 거제시 연초면 오비4길 17,,34.91783498,128.619668,경상남도 거제시 연초면 오비리 165,,,0,0,0,0,0,,,,,,,,07:30,18:00,,,,,,,,055-633-4742,2020-06-29,5370000,경상남도 거제시
(유)케이엠렌트카,영업소,경상남도 거제시 연초면 방곡길 3,,34.91056164,128.6617369,경상남도 거제시 둔덕면 학산3길 61,,,0,0,0,0,0,,,,,,,,09:00,18:00,,,,,,,,055-632-8214,2020-06-29,5370000,경상남도 거제시
㈜건일렌트카,영업소,"경상남도 거제시 옥포성안로4길28-1,101호(옥포동,한아름빌)",,34.89265778,128.6970354,경상남도 거제시 연초면 연하해안로37,,,12,12,0,0,0,,,,,,,,00:00,23:59,,,,,,,,055-633-0326,2020-06-29,5370000,경상남도 거제시
㈜쏘카,영업소,,경상남도 거제시 고현동 82-5,34.885751,128.625631,경상남도 거제시 고현동 82-5번지,,,34,34,0,0,0,,,,,,,,00:00,23:59,,,,,,,,055-633-8865,2020-06-29,5370000,경상남도 거제시
영일산업㈜,영업소,경상남도 거제시 고현로 14길 59(고현동),,34.88361206,128.6291084,경상남도 거제시 고현로 14길 59(고현동),,,2,2,0,0,0,,,,,,,,09:00,21:00,,,,,,,,055-633-0316,2020-06-29,5370000,경상남도 거제시
서경렌트카,영업소,경상남도 거제시 문동5길 6,,34.86463382,128.6495013,경상남도 거제시 문동5길 6,,,15,15,0,0,0,,,,,,,,09:00,21:00,,,,,,,,055-638-5579,2020-06-29,5370000,경상남도 거제시
㈜케이디렌트카,영업소,경상남도 거제시 수양로 502(양정동),,34.89146749,128.6368941,경상남도 거제시 사등면 거제대로 5296,,,1,1,0,0,0,,,,,,,,00:00,23:59,,,,,,,,055-633-5225,2020-06-29,5370000,경상남도 거제시
㈜천지렌트카,영업소,경상남도 거제시 동문천로 23(고현동),,34.880866,128.624278,경상남도 거제시 거제대로 4909,,,2,2,0,0,0,,,,,,,,09:00,23:00,,,,,,,,055-636-1491,2020-06-29,5370000,경상남도 거제시
케이에스렌트카㈜,영업소,경상남도 거제시 고현로10길 19-1(고현동),,34.885702,128.625457,"경상남도 거제시 고현로10길 19-1 (고현동, 동진주차장)",,,13,13,0,0,0,,,,,,,,09:00,19:00,,,,,,,,055-634-2626,2020-06-29,5370000,경상남도 거제시
㈜뉴하이렌트카,영업소,경상남도 거제시 중곡2로4길 7-5,,34.8948279073,128.6277328297,경상남도 거제시 중곡2로4길 7-5,,,6,6,0,0,0,,,,,,,,08:00,20:00,,,,,,,,055-638-4400,2020-06-29,5370000,경상남도 거제시
케이네트웍스㈜,주사업장,"인천광역시 부평구 항동로 158, 103호 (일신동)","인천광역시 부평구 일신동 79-108, 103호",37.48106393,126.7509538,인천광역시 부평구 충선로203번길 4(삼산동),인천광역시 부평구 삼산동 460-5,,76,73,3,0,0,,,,,,,,09:00,18:00,09:00,18:00,09:00,18:00,,https://www.krent.co.kr,이종남,1588-9325,2020-06-30,3540000,인천광역시 부평구
케이네트웍스㈜,영업소,"인천광역시 계양구 아나지로409번길 4, 나동 204호(작전동)","인천광역시 계양구 작전동 661-2, 나동 204호",37.52586851,126.7374015,인천광역시 부평구 충선로203번길 4(삼산동),인천광역시 부평구 삼산동 460-5,,4,4,0,0,0,,,,,,,,09:00,18:00,,,,,,https://www.krent.co.kr,이종남,1588-9325,2020-06-30,3540000,인천광역시 부평구
㈜제일렌트카,주사업장,서울특별시 중구 서소문로9길 41-10,,37.56401996,126.9689803,서울특별시 강서구 마곡서로 101,,,341,311,30,0,0,,,,,,,,09:00,18:00,,,,,,,,02-720-0300,2020-06-30,3010000,서울특별시 중구
㈜비엠더블유파이낸셜서비스코리아,주사업장,서울특별시 중구 퇴계로 100,,37.5602013,126.9829327,서울특별시 송파구 법원로4길 17,,,2543,2543,0,0,0,,,,,,,,09:00,18:00,,,,,,,,1577-5822,2020-06-30,3010000,서울특별시 중구
메르세데스벤츠모빌리티코리아㈜,주사업장,서울특별시 중구 한강대로 416,,37.55550489,126.9737528,서울특별시 성북구 보문로 168,,,98,98,0,0,0,,,,,,,,09:00,18:00,,,,,,,,02-6456-2299,2020-06-30,3010000,서울특별시 중구
브이아이피리모렌터카㈜,주사업장,서울특별시 중구 다산로 32,,37.54716803,127.0056761,서울특별시 양천구 월정로 257,,,107,77,30,0,0,,,,,,,,09:00,18:00,,,,,,,,02-3141-2345,2020-06-30,3010000,서울특별시 중구
㈜디지비캐피탈,주사업장,서울특별시 중구 남대문로 125,,37.56837272,126.9822921,서울특별시 양천구 월정로 257,,,620,620,0,0,0,,,,,,,,09:00,18:00,,,,,,,,1566-0055,2020-06-30,3010000,서울특별시 중구
네셔널렌트카,주사업장,충청남도 논산시 부적면 계백로 1479-16,,36.2146153,127.139468,충청남도 논산시 광석면 논산평야로 433,충청남도 논산시 광석면 갈산리 202-2,656,41,38,3,0,0,,,,,,,,09:00,18:00,,,,,,,,041-741-8386,2020-04-24,4540000,충청남도 논산시
동원렌트카,주사업장,충청남도 논산시 해월로 35,,36.1956962,127.076971,충청남도 논산시 상월면 백일헌로 1041-3,충청남도 논산시 상월면 신충리 38,662,187,175,12,0,0,,,,,,,,09:00,18:00,,,,,,,,041-733-5355,2020-04-24,4540000,충청남도 논산시
동원렌트카,영업소,충청남도 논산시 시민로 219,,36.1863038,127.096915,충청남도 논산시 상월면 상월로 216-3,충청남도 논산시 상월면 대촌리 372-7,700,27,23,4,0,0,,,,,,,,09:00,18:00,,,,,,,,041-735-0070,2020-04-24,4540000,충청남도 논산시
중부가나렌트카,주사업장,충청남도 논산시 부적면 부인길 2,,36.2121997,127.116203,,충청남도 논산시 부적면 마구평리 11-5,271,85,80,5,0,0,,,,,,,,09:00,18:00,,,,,,,,041-734-9970,2020-04-24,4540000,충청남도 논산시
케이비넘버원렌트카,주사업장,충청남도 논산시 계백로 1105,,36.2093974,127.097548,충청남도 논산시 계백로 1105,충청남도 논산시 덕지동 285,1000,73,60,13,0,0,,,,,,,,09:00,18:00,,,,,,,,041-736-5506,2020-04-24,4540000,충청남도 논산시
엔에이치농협캐피탈㈜,주사업장,"서울특별시 영등포구 국제금융로8길 27-8, NH농협캐피탈빌딩(여의도동)",,37.519418,126.9284047,,서울특별시 동작구 사당동 318-12 지산주차장,,4462,4419,43,0,0,,,,,,,,09:00,18:00,,,,,,,,02-3709-3954,2020-06-29,3180000,서울특별시 영등포구
오토플러스㈜,주사업장,"서울특별시 영등포구 선유동2로 57, 11층 (양평동4가, 이레빌딩신관)",,37.5338243938,126.8968836022,,서울특별시 도봉구 도봉동 282-26,,516,494,22,0,0,,,,,,,,09:00,18:00,,,,,,,,070-7120-4114,2020-06-29,3180000,서울특별시 영등포구
㈜한빛렌트카,주사업장,"서울특별시 영등포구 버드나루로 109, 현대뉴스타오피스텔 607호",,37.527755,126.907873,,서울특별시 은평구 수색동 78-2(수색공영주차장),,126,92,34,0,0,,,,,,,,09:00,18:00,,,,,,,,02-6949-5005,2020-06-29,3180000,서울특별시 영등포구
현대커머셜,주사업장,"서울특별시 영등포구 국회대로66길3(여의도동,현대캐피탈2관)",,37.529504,126.918725,"서울특별시 마포구 와우산로94, 홍익대 홍문관 지하주차장",,,50,50,0,0,0,,,,,,,,09:00,18:00,,,,,,,,02-2090-5368,2020-06-29,3180000,서울특별시 영등포구
㈜모두가치,주사업장,"서울특별시 영등포구 문래북로 116, 1202호(문래동3가, 트리플렉스)",,37.5194850543,126.8980390525,서울특별시 종로구 대학로 57(연건동) 홍익대학교 대학로 캠퍼스주차장,,,61,61,0,0,0,,,,,,,,09:00,18:00,,,,,,,,02-6671-8803,2020-06-29,3180000,서울특별시 영등포구
(합)미래렌트카,주사업장,충청남도 서산시 운암로 76 (수석동),,36.781699,126.4975861111,충청남도 서산시 운암로 76 (수석동),,,30,29,1,0,0,,,,,,,,09:00,18:00,,,,,,,,041-688-5650,2020-05-31,4530000,충청남도 서산시
(합)청훈렌트카,주사업장,충청남도 서산시 해미면 한티로 10,,36.707709,126.551724,충청남도 서산시 해미면 내포로 2486-8,,,24,20,4,0,0,,,,,,,,09:00,18:00,,,,,,,,041-688-6111,2020-05-31,4530000,충청남도 서산시
구진렌트카(주),주사업장,충청남도 서산시 호수공원1로 78 (읍내동),,36.7768780779,126.4518920776,충청남도 서산시 고운로 6-7,,,34,34,1,0,0,,,,,,,,09:00,18:00,,,,,,,,041-669-3479,2020-05-31,4530000,충청남도 서산시
㈜오렌지렌트카,주사업장,충청남도 서산시 성연면 성연로 133-8,,36.8367929178,126.4532181658,충청남도 서산시 안견로 585(갈산동),,,20,20,0,0,0,,,,,,,,09:00,18:00,,,,,,,,070-4353-1006,2020-05-31,4530000,충청남도 서산시
(합)동원렌트카 서산영업소,영업소,충청남도 서산시 성연면 충의로 567-23,,36.822745,126.439813,충청남도 서산시 충의로 567-23,,,8,8,0,0,0,,,,,,,,09:00,18:00,,,,,,,,041-664-1767,2020-05-31,4530000,충청남도 서산시
(유)진렌트카 서산영업소,영업소,충청남도 서산시 고운로 365,,36.785954,126.475004,충청남도 서산시 고운로 365,,,20,20,0,0,0,,,,,,,,09:00,18:00,,,,,,,,041-669-6056,2020-05-31,4530000,충청남도 서산시
㈜금강렌트카 서산영업소,영업소,충청남도 서산시 읍내3로 14-8(읍내동),,36.778744,126.449970,충청남도 서산시 읍내3로 14-8,,,11,11,0,0,0,,,,,,,,09:00,18:00,,,,,,,,041-663-8555,2020-05-31,4530000,충청남도 서산시
㈜금강렌트카 대산영업소,영업소,충청남도 서산시 대산읍 충의로 1857,,36.931952,126.439375,충청남도 서산시 충의로 1857,,,9,9,0,0,0,,,,,,,,09:00,18:00,,,,,,,,041-682-2222,2020-05-31,4530000,충청남도 서산시
롯데렌탈㈜ 서산영업소,영업소,충청남도 서산시 서해로 3437,,36.7716221531,126.459632,충청남도 서산시 성연면 일람리 803/803-6,,,337,323,14,0,0,,,,,,,,09:00,18:00,,,,,,,,041-855-8000,2020-05-31,4530000,충청남도 서산시
(자)기풍렌트카 서산2영업소,영업소,충청남도 서산시 율지8로 9,,36.782143,126.460382,충청남도 서산시 충의로 47,,,2,2,0,0,0,,,,,,,,09:00,18:00,,,,,,,,041-668-7922,2020-05-31,4530000,충청남도 서산시
(자)기풍렌트카 서산영업소,영업소,충청남도 서산시 대산읍 충의로 1899,,36.934876,126.436381,충청남도 서산시 충의로 1903-1,,,2,2,0,0,0,,,,,,,,09:00,18:00,,,,,,,,041-681-5507,2020-05-31,4530000,충청남도 서산시
㈜삼성렌트카,영업소,충청남도 서산시 율지4로 4,,36.780113,126.459552,충청남도 서산시 인지면 둔당리 256-6,,,10,9,1,0,0,,,,,,,,09:00,18:00,,,,,,,,043-237-8281,2020-05-31,4530000,충청남도 서산시
에이제이렌터카㈜ 서산영업소,영업소,"충청남도 서산시 벌말1길 46-7, 2층(동문동)",,36.776963,126.466499,충청남도 서산시 한마음10길 12,,,6,6,0,0,0,,,,,,,,09:00,18:00,,,,,,,,041-668-2847,2020-05-31,4530000,충청남도 서산시
㈜조은렌트카 서산영업소,영업소,충청남도 서산시 호수공원15로 9,,36.773823,126.444112,충청남도 서산시 예천동 489-4,,,9,8,1,0,0,,,,,,,,09:00,18:00,,,,,,,,041-668-1235,2020-05-31,4530000,충청남도 서산시
스타렌터카코리아,주사업장,"서울특별시 서초구 방배로 137, 9층(방배동)",,37.4861268433,126.9943013372,서울특별시 서대문구 신촌역로 30,,,680,680,0,0,0,0,,,,,,,09:00,18:00,,,,,,,,02-560-4500,2020-07-01,3210000,서울특별시 서초구
스타렌터카코리아,영업소,부산광역시 수영구 수영로 434 남천동,,35.144472,129.109792,부산광역시 기장군 정관읍 구연로 19,,,210,210,0,0,0,0,,,,,,,09:00,18:00,,,,,,,,02-560-4500,2020-07-01,3210000,서울특별시 서초구
스타렌터카코리아,영업소,부산광역시 수영구 수영로 434 남천동,,35.144472,129.109792,부산광역시 기장군 철마면 반송로 1090,,,332,332,0,0,0,0,,,,,,,09:00,18:00,,,,,,,,02-560-4500,2020-07-01,3210000,서울특별시 서초구
빌림,주사업장,서울특별시 서초구 과천대로 840(방배동),,37.467123,126.987965,서울특별시 종로구 돈화문로5가길 1,,,10,10,0,0,0,0,,,,,,,09:00,18:00,,,,,,,,02-501-5766,2020-07-01,3210000,서울특별시 서초구
빌림,주사업장,서울특별시 서초구 과천대로 840(방배동),,37.467123,126.987965,서울특별시 송파구 법원로4길 17,,,218,218,0,0,0,0,,,,,,,09:00,18:00,,,,,,,,02-501-5766,2020-07-01,3210000,서울특별시 서초구
빌림,주사업장,서울특별시 서초구 과천대로 840(방배동),,37.467123,126.987965,서울특별시 서초구 방배동 1002,,,138,137,1,0,0,0,,,,,,,09:00,18:00,,,,,,,,02-501-5766,2020-07-01,3210000,서울특별시 서초구
빌림,영업소,"인천광역시 동구 방축로 191, B04호",,37.4798030601,126.665149,인천광역시 남동구 구월동 1142-6,인천광역시 남동구 구월동 1142-6,,0,0,0,0,0,0,,,,,,,09:00,18:00,,,,,,,,02-501-5766,2020-07-01,3210000,서울특별시 서초구
굿딜렌터카,주사업장,"서울특별시 서초구 마방로 10길 15, B동 721호(양재동)",,37.4769033087,127.043848,서울특별시 동대문구 정릉천동 83,,,5,5,0,0,0,0,,,,,,,09:00,18:00,,,,,,,,070-4896-3742,2020-07-01,3210000,서울특별시 서초구
굿딜렌터카,주사업장,"서울특별시 서초구 마방로 10길 15, B동 721호(양재동)",,37.4769033087,127.043848,서울특별시 성동구 마장동 439-1,,,4,4,0,0,0,0,,,,,,,09:00,18:00,,,,,,,,070-4896-3742,2020-07-01,3210000,서울특별시 서초구
굿딜렌터카,주사업장,"서울특별시 서초구 마방로 10길 15, B동 721호(양재동)",,37.4769033087,127.043848,서울특별시 금천구 금하로14길 6-16,,,1,1,0,0,0,0,,,,,,,09:00,18:00,,,,,,,,070-4896-3742,2020-07-01,3210000,서울특별시 서초구
굿딜렌터카,주사업장,"서울특별시 서초구 마방로 10길 15, B동 721호(양재동)",,37.4769033087,127.043848,서울특별시 동대문구 청계천로 525 청계주차장,,,8,6,2,0,0,0,,,,,,,09:00,18:00,,,,,,,,070-4896-3742,2020-07-01,3210000,서울특별시 서초구
굿딜렌터카,주사업장,"서울특별시 서초구 마방로 10길 15, B동 721호(양재동)",,37.4769033087,127.043848,서울특별시 동대문구 장한로26다길 87,,,4,4,0,0,0,0,,,,,,,09:00,18:00,,,,,,,,070-4896-3742,2020-07-01,3210000,서울특별시 서초구
씨엘모터스,주사업장,"서울특별시 서초구 남부순환로 2219, 2층",,37.473859,126.994927,"서울특별시 서초구 남부순환로 2219,",,,13,13,0,0,0,0,,,,,,,00:00,00:00,,,,,,,,02-525-0040,2020-07-01,3210000,서울특별시 서초구
씨엘모터스,주사업장,"서울특별시 서초구 남부순환로 2219, 2층",,37.473859,126.994927,서울특별시 종로구 돈화문로5가길 1,,,38,38,0,0,0,0,,,,,,,00:00,00:00,,,,,,,,02-525-0041,2020-07-01,3210000,서울특별시 서초구
씨엘모터스,주사업장,"서울특별시 서초구 남부순환로 2219, 2층",,37.473859,126.994927,"서울특별시 서초구 남부순환로 2215, 6층",,,5,5,0,0,0,0,,,,,,,00:00,00:00,,,,,,,,02-525-0042,2020-07-01,3210000,서울특별시 서초구
비덱카,주사업장,"서울특별시 서초구 강남대로 51길 1, 9층",,37.491261,127.0302637900,서울특별시 도봉구 창동 330,,,50,50,0,0,0,0,,,,,,,09:00,18:00,,,,,,,,1577-9665,2020-07-01,3210000,서울특별시 서초구
비덱카,주사업장,"서울특별시 서초구 강남대로 51길 1, 9층",,37.491261,127.0302637900,서울특별시 강서구 공항대로 261,,,3,3,0,0,0,0,,,,,,,09:00,18:00,,,,,,,,1577-9666,2020-07-01,3210000,서울특별시 서초구
더굿카,주사업장,서울특별시 서초구 언남9길 7-4 302호,,37.473792,127.042581,서울특별시 양천구 남부순환로 380-1,,,30,0,0,30,0,0,,,,,,,00:00,00:00,,,,,,,,02-051-0773,2020-07-01,3210000,서울특별시 서초구
더굿카,주사업장,서울특별시 서초구 언남9길 7-4 302호,,37.473792,127.042581,서울특별시 은평구 가좌로5길 16,,,0,0,0,0,0,0,,,,,,,00:00,00:00,,,,,,,,02-051-0774,2020-07-01,3210000,서울특별시 서초구
케이제이렌트카,주사업장,서울특별시 서초구 남부순환로 2636,,37.4848879514,127.039064,서울특별시 서초구 양재동 225번지 외 3필지,,,46,45,1,0,0,0,,,,,,,00:00,00:00,,,,,,,,02-798-9077,2020-07-01,3210000,서울특별시 서초구
케이제이렌트카,주사업장,서울특별시 서초구 남부순환로 2636,,37.4848879514,127.039064,서울특별시 용산구 용산동2가 1-1497,,,23,21,2,0,0,0,,,,,,,00:00,00:00,,,,,,,,02-798-9078,2020-07-01,3210000,서울특별시 서초구
케이제이렌트카,주사업장,서울특별시 서초구 남부순환로 2636,,37.4848879514,127.039064,서울특별시 은평구 구산동 340-1 외 3필지,,,10,10,0,0,0,0,,,,,,,00:00,00:00,,,,,,,,02-798-9079,2020-07-01,3210000,서울특별시 서초구
케이제이렌트카,주사업장,서울특별시 서초구 남부순환로 2636,,37.4848879514,127.039064,서울특별시 양천구 월정로 257,,,40,40,0,0,0,0,,,,,,,00:00,00:00,,,,,,,,02-798-9080,2020-07-01,3210000,서울특별시 서초구
㈜한진,주사업장,서울특별시 중구 남대문로 63,,37.5630639,126.9813652,서울특별시 마포구 신수동 448-15,,,197,183,14,0,0,,,,,,,,09:00,18:00,,,,,,,,02-6460-0711,2020-06-30,3010000,서울특별시 중구
㈜블루렌트카,주사업장,서울특별시 중구 다산로42길 12,,37.5647292,127.0169482,서울특별시 강남구 대치동 1000-4.5,,,103,92,11,0,0,,,,,,,,09:00,18:00,,,,,,,,02-2256-5555,2020-06-30,3010000,서울특별시 중구
㈜푸른솔관광,주사업장,서울특별시 중구 서소문로9길 41-10,,37.56401996,126.9689803,서울특별시 영등포동 영등포동4가 123,,,574,476,98,0,0,,,,,,,,09:00,18:00,,,,,,,,02-579-0010,2020-06-30,3010000,서울특별시 중구
㈜새한렌트카,주사업장,서울특별시 중구 청파로 464,,37.56081942,126.9682129,서울특별시 영등포구 영등포로4가 123,,,86,82,4,0,0,,,,,,,,09:00,18:00,,,,,,,,02-720-0339,2020-06-30,3010000,서울특별시 중구
㈜성원렌트카,주사업장,서울특별시 중구 서소문로 103,,37.56301536,126.9726726,서울특별시 강서구 마곡서로 101,,,114,91,23,0,0,,,,,,,,09:00,18:00,,,,,,,,02-2069-1124,2020-06-30,3010000,서울특별시 중구
㈜렌트투어,주사업장,서울특별시 중구 다산로 77,,37.55153235,127.0077183,서울특별시 양천구 신정로 167,,,77,75,2,0,0,,,,,,,,09:00,18:00,,,,,,,,02-2254-2225,2020-06-30,3010000,서울특별시 중구
㈜대영렌트카,주사업장,서울특별시 중구 동호로 195-7,,37.5552085,127.0096258,서울특별시 성북구 보문로 168,,,461,458,3,0,0,,,,,,,,09:00,18:00,,,,,,,,02-512-7926,2020-06-30,3010000,서울특별시 중구
거성렌트카,영업소,"서울특별시 서초구 매헌로16길 6, 201호",,37.467286,127.034933,"서울특별시 영등포구 대림3동 681-9,10","서울특별시 영등포구 대림3동 681-9,10",,10,10,0,0,0,0,,,,,,,10:00,20:00,,,,,,,,02-2043-4891,2020-07-01,3210000,서울특별시 서초구
거성렌트카,영업소,"서울특별시 서초구 매헌로16길 6, 201호",,37.467286,127.034933,서울특별시 용산구 원효로97길 26,서울특별시 용산구 원효로97길 26,,8,8,0,0,0,0,,,,,,,10:00,20:00,,,,,,,,02-2043-4892,2020-07-01,3210000,서울특별시 서초구
굿윌파트너즈,주사업장,"서울특별시 서초구 강남대로 51길 10, B1층 101-15호",,37.4912807219,127.0292777603,서울특별시 양천구 신정동 884-8,,,0,0,0,0,0,0,,,,,,,09:00,18:00,,,,,,,,070-5121-0013,2020-07-01,3210000,서울특별시 서초구
굿윌파트너즈,주사업장,"서울특별시 서초구 강남대로 51길 10, B1층 101-15호",,37.4912807219,127.0292777603,서울특별시 성동구 마조로 18길 20,,,54,50,4,0,0,0,,,,,,,09:00,18:00,,,,,,,,070-5121-0013,2020-07-01,3210000,서울특별시 서초구
굿윌파트너즈,영업소,경기도 용인시 수지구 용구대로 2753번길 6,,37.3321113708,127.108031,경기도 용인시 수지구 용구대로 2753번길 6,,,4,4,0,0,0,0,,,,,,,09:00,18:00,,,,,,,,070-5121-0013,2020-07-01,3210000,서울특별시 서초구
휴맥스모빌리티,주사업장,"서울특별시 서초구 서초대로 398, 6층 603호",,37.4966372681,127.0251047699,서울특별시 동작구 사당동 318-12,서울특별시 동작구 사당동 318-12,,21,21,0,0,0,0,,,,,,,09:00,20:00,,,,,,,,1544-7198,2020-07-01,3210000,서울특별시 서초구
휴맥스모빌리티,주사업장,"서울특별시 서초구 서초대로 398, 6층 603호",,37.4966372681,127.0251047699,서울특별시 영등포구 국제금융로2길 37,,,37,36,1,0,0,0,,,,,,,09:00,20:00,,,,,,,,1544-7198,2020-07-01,3210000,서울특별시 서초구
휴맥스모빌리티,주사업장,"서울특별시 서초구 서초대로 398, 6층 603호",,37.4966372681,127.0251047699,서울특별시 종로구 돈화문로5가길 1,,,39,38,1,0,0,0,,,,,,,09:00,20:00,,,,,,,,1544-7198,2020-07-01,3210000,서울특별시 서초구
휴맥스모빌리티,주사업장,"서울특별시 서초구 서초대로 398, 6층 603호",,37.4966372681,127.0251047699,서울특별시 성북구 오패산로10길 30,,,18,18,0,0,0,0,,,,,,,09:00,20:00,,,,,,,,1544-7198,2020-07-01,3210000,서울특별시 서초구
휴맥스모빌리티,주사업장,"서울특별시 서초구 서초대로 398, 6층 603호",,37.4966372681,127.0251047699,서울특별시 용산구 용산동 6가 69-11,,,15,15,0,0,0,0,,,,,,,09:00,20:00,,,,,,,,1544-7198,2020-07-01,3210000,서울특별시 서초구
휴맥스모빌리티,주사업장,"서울특별시 서초구 서초대로 398, 6층 603호",,37.4966372681,127.0251047699,서울특별시 양천구 은행정로 42,,,10,10,0,0,0,0,,,,,,,09:00,20:00,,,,,,,,1544-7198,2020-07-01,3210000,서울특별시 서초구
휴맥스모빌리티,주사업장,"서울특별시 서초구 서초대로 398, 6층 603호",,37.4966372681,127.0251047699,서울특별시 은평구 통일로 755,,,6,6,0,0,0,0,,,,,,,09:00,20:00,,,,,,,,1544-7198,2020-07-01,3210000,서울특별시 서초구
휴맥스모빌리티,영업소,"경기도 고양시 일산동구 백마로 502번길 34, 101호",,37.6613190619,126.8038191357,경기도 고양시 일산서구 주화로 210,,,0,0,0,0,0,0,,,,,,,09:00,20:00,,,,,,,,1544-7198,2020-07-01,3210000,서울특별시 서초구
휴맥스모빌리티,영업소,"경기도 고양시 일산동구 백마로 502번길 34, 101호",,37.6613190619,126.8038191357,경기도 파주시 월롱명 덕은리 1234,,,38,38,0,0,0,0,,,,,,,09:00,20:00,,,,,,,,1544-7198,2020-07-01,3210000,서울특별시 서초구
휴맥스모빌리티,영업소,"경기도 고양시 일산동구 백마로 502번길 34, 101호",,37.6613190619,126.8038191357,서울특별시 은평구 통일로 92다길 16-23,,,0,0,0,0,0,0,,,,,,,09:00,20:00,,,,,,,,1544-7198,2020-07-01,3210000,서울특별시 서초구
휴맥스모빌리티,영업소,경기도 고양시 덕양구 덕은로 11,,37.5890251664,126.876579,서울특별시 양천구 월정로 257,,,5,5,0,0,0,0,,,,,,,09:00,20:00,,,,,,,,1544-7198,2020-07-01,3210000,서울특별시 서초구
휴맥스모빌리티,영업소,"서울특별시 강남구 강남대로 132길 55, 601호",,37.5134535617,127.025426,서울특별시 강남구 강남대로 132길 55,,,2,2,0,0,0,0,,,,,,,09:00,20:00,,,,,,,,1544-7198,2020-07-01,3210000,서울특별시 서초구
휴맥스모빌리티,영업소,"인천광역시 부평구 마장로 489, 1712호",,37.5213631063,126.7037206260,인천광역시 남동구 구월동 1142-6,,,5,5,0,0,0,0,,,,,,,09:00,20:00,,,,,,,,1544-7198,2020-07-01,3210000,서울특별시 서초구
휴맥스모빌리티,영업소,경기도 고양시 일산서구 중앙로 1406,,37.669336,126.763856,경기도 파주시 월롱명 덕은리 1234,,,8,8,0,0,0,0,,,,,,,09:00,20:00,,,,,,,,1544-7198,2020-07-01,3210000,서울특별시 서초구
휴맥스모빌리티,영업소,"서울특별시 노원구 한글비석로 396, 109동 지하34호",,37.6623025679,127.0735818598,"서울특별시 영등포구 양평동2가 40-3, 40-9",,,5,5,0,0,0,0,,,,,,,09:00,20:00,,,,,,,,1544-7198,2020-07-01,3210000,서울특별시 서초구
휴맥스모빌리티,영업소,"서울특별시 노원구 한글비석로 396, 109동 지하34호",,37.6623025679,127.0735818598,서울특별시 영등포구 국제금융로2길 37,,,3,3,0,0,0,0,,,,,,,09:00,20:00,,,,,,,,1544-7198,2020-07-01,3210000,서울특별시 서초구
휴맥스모빌리티,영업소,"경기도 수원시 금곡로 204, 1동 903호",,37.275459,126.952494,경기도 수원시 권선구 경수대로 270,,,5,5,0,0,0,0,,,,,,,09:00,20:00,,,,,,,,1544-7198,2020-07-01,3210000,서울특별시 서초구
휴맥스모빌리티,영업소,부산 사하구 낙동대로563번길 39-1,,35.113641,128.960734,부산 사하구 낙동대로563번길 39-1,,,10,10,0,0,0,0,,,,,,,09:00,20:00,,,,,,,,1544-7198,2020-07-01,3210000,서울특별시 서초구
스타렌터카코리아,주사업장,"서울특별시 서초구 방배로 137, 9층(방배동)",,37.4861268433,126.9943013372,"서울특별시 강서구 방화대로 241(공항동, 공항중학교)",,,500,500,0,0,0,0,,,,,,,09:00,18:00,,,,,,,,02-560-4500,2020-07-01,3210000,서울특별시 서초구
스타렌터카코리아,주사업장,"서울특별시 서초구 방배로 137, 9층(방배동)",,37.4861268433,126.9943013372,서울특별시 양천구 목동 525,,,456,456,0,0,0,0,,,,,,,09:00,18:00,,,,,,,,02-560-4500,2020-07-01,3210000,서울특별시 서초구
스타렌터카코리아,주사업장,"서울특별시 서초구 방배로 137, 9층(방배동)",,37.4861268433,126.9943013372,서울특별시 송파구 백제고분로 32길 25-17(삼전동 175-8),,,0,0,0,0,0,0,,,,,,,09:00,18:00,,,,,,,,02-560-4500,2020-07-01,3210000,서울특별시 서초구
스타렌터카코리아,주사업장,"서울특별시 서초구 방배로 137, 9층(방배동)",,37.4861268433,126.9943013372,양천구 신정3동 1158-1,,,210,210,0,0,0,0,,,,,,,09:00,18:00,,,,,,,,02-560-4500,2020-07-01,3210000,서울특별시 서초구
(자)기풍렌트가,영업소,경기도 이천시 부발읍 신아로 3,,37.25902576,127.481653,경기도 이천시  신아로 3,경기도 이천시 부발읍 신하리 532-5,,7,6,1,0,0,,,,,,,,08:00,20:00,,,,,,,,031-633-9991,2020-06-19,4070000,경기도 이천시
스타렌터카코리아,주사업장,"서울특별시 서초구 방배로 137, 9층(방배동)",,37.4861268433,126.9943013372,서울특별시 종로구 대학로 57,,,666,666,0,0,0,0,,,,,,,09:00,18:00,,,,,,,,02-560-4500,2020-07-01,3210000,서울특별시 서초구
마스타자동차관리,영업소,강원도 강릉시 동해대로3456번길 22-12,강원도 강릉시 대전동 206-3,37.796942,128.8613187,강원도 강릉시 동해대로3456번길 22-12,강원도 강릉시 대전동 206-3,,15,15,0,0,0,0,,,,,,,09:00,18:00,,,,,,,,02-590-7045,2020-07-01,3210000,서울특별시 서초구
마스타자동차관리,영업소,충청북도 청주시 흥덕구 공단로 137,,36.642512,127.435868,충청북도 청주시 흥덕구 공단로 137,,,0,0,0,0,0,0,,,,,,,09:00,18:00,,,,,,,,02-590-7045,2020-07-01,3210000,서울특별시 서초구
마스타자동차관리,영업소,경상북도 청도군 화양읍 청려로 1832-5,,35.650932,128.7188730020,경상북도 청도군 화양읍 청려로 1832-5,,,0,0,0,0,0,0,,,,,,,09:00,18:00,,,,,,,,02-590-7045,2020-07-01,3210000,서울특별시 서초구
마스타자동차관리,영업소,충청남도 천안시 동남구 망향로 13,,36.8282109981,127.1650100154,충남 천안시 서북구 두정로 203(두정동),,,0,0,0,0,0,0,,,,,,,09:00,18:00,,,,,,,,02-590-7045,2020-07-01,3210000,서울특별시 서초구
마스타자동차관리,영업소,충청북도 청주시 흥덕구 공단로 137,,36.642543,127.4358646102,충북 청주시 흥덕구 공단로 137,,,0,0,0,0,0,0,,,,,,,09:00,18:00,,,,,,,,02-590-7045,2020-07-01,3210000,서울특별시 서초구
마스타자동차관리,영업소,경상남도 창원시 마산합포구 진동면 덕곡덕기길 37,,35.1247375171,128.4852319755,경상남도 창원시 성산구 마디미로 73번길 25,,,2,2,0,0,0,0,,,,,,,09:00,18:00,,,,,,,,02-590-7045,2020-07-01,3210000,서울특별시 서초구
삼성렌터카,주사업장,서울특별시 서초구 신반포로43길 11-26(잠원동),,37.5105213981,127.017028,서울특별시 서초구 잠원동 46-8 삼성주차장,서울특별시 서초구 잠원동 46-8 삼성주차장,,50,49,1,0,0,0,,,,,,,08:00,20:00,,,,,,,,02-896-9494,2020-07-01,3210000,서울특별시 서초구
삼성렌터카,주사업장,서울특별시 서초구 신반포로43길 11-26(잠원동),,37.5105213981,127.017028,"서울특별시 서초구 서초동 1561-7,9,10,13 한성주차장","서울특별시 서초구 서초동 1561-7,9,10,13 한성주차장",,8,5,3,0,0,0,,,,,,,08:00,20:00,,,,,,,,02-896-9494,2020-07-01,3210000,서울특별시 서초구
삼성렌터카,주사업장,서울특별시 서초구 신반포로43길 11-26(잠원동),,37.5105213981,127.017028,"강남구 역삼동 828-30,31,32,61","강남구 역삼동 828-30,31,32,61",,19,14,5,0,0,0,,,,,,,08:00,20:00,,,,,,,,02-896-9494,2020-07-01,3210000,서울특별시 서초구
삼성렌터카,주사업장,서울특별시 서초구 신반포로43길 11-26(잠원동),,37.5105213981,127.017028,서울특별시 강남구 개포동 1176-3,서울특별시 강남구 개포동 1176-3,,5,5,0,0,0,0,,,,,,,08:00,20:00,,,,,,,,02-896-9494,2020-07-01,3210000,서울특별시 서초구
삼성렌터카,영업소,서울특별시 마포구 매봉산로 80 2층 10호,,37.578391,126.894183,"서울특별시 서초구 서초동 1561-7,9,10,13 한성주차장","서울특별시 서초구 서초동 1561-7,9,10,13 한성주차장",,32,26,6,0,0,0,,,,,,,08:00,20:00,,,,,,,,02-896-9494,2020-07-01,3210000,서울특별시 서초구
삼성렌터카,영업소,"서울특별시 강남구 논현로 213, 상가동 B116호",,37.4914141895,127.0409970785,"강남구 역삼동 828-30,31,32,61","강남구 역삼동 828-30,31,32,61",,14,14,0,0,0,0,,,,,,,08:00,20:00,,,,,,,,02-896-9494,2020-07-01,3210000,서울특별시 서초구
삼성렌터카,영업소,"서울특별시 강남구 논현로 213, 상가동 B116호",,37.4914141895,127.0409970785,서울특별시 강남구 개포동 1176-3,서울특별시 강남구 개포동 1176-3,,5,3,2,0,0,0,,,,,,,08:00,20:00,,,,,,,,02-896-9494,2020-07-01,3210000,서울특별시 서초구
아이에스렌터카,주사업장,"서울특별시 서초구 양재대로11길 36 101호 (양재동,서울오토갤러리 은관)",,37.461806,127.035344,서울특별시 도봉구 마들로 657,,,167,161,6,0,0,0,,,,,,,09:00,19:00,,,,,,,,02-2059-8572,2020-07-01,3210000,서울특별시 서초구
아이에스렌터카,영업소,"서울특별시 서초구 서초대로 29길 10-8, 401호",,37.488723,126.9958027436,서울특별시 은평구 가좌로 5길 16,,,20,20,0,0,0,0,,,,,,,09:00,19:00,,,,,,,,02-2059-8573,2020-07-01,3210000,서울특별시 서초구
아이에스렌터카,영업소,"서울특별시 서초구 서초대로 29길 10-8, 401호",,37.488723,126.9958027436,서울특별시 종로구 돈화문로5가길 1,,,5,5,0,0,0,0,,,,,,,09:00,19:00,,,,,,,,02-2059-8574,2020-07-01,3210000,서울특별시 서초구
아이에스렌터카,영업소,"서울특별시 서초구 서초대로 29길 10-8, 401호",,37.488723,126.9958027436,서울특별시 양천구 월정로 257,,,5,5,0,0,0,0,,,,,,,09:00,19:00,,,,,,,,02-2059-8575,2020-07-01,3210000,서울특별시 서초구
아이에스렌터카,영업소,"경기도 남양주시 별내5로 5번길 54, 101호(별내동,엔포레프라자)",,37.652235,127.115048,경기도 의정부시 민락동 815번지,경기도 의정부시 민락동 815번지,,7,7,0,0,0,0,,,,,,,09:00,19:00,,,,,,,,02-2059-8576,2020-07-01,3210000,서울특별시 서초구
아이에스렌터카,영업소,"서울특별시 송파구 올림픽로30길 9, 12층 1220호",,37.515081,127.108128,서울특별시 양천구 월정로 257,,,10,10,0,0,0,0,,,,,,,09:00,19:00,,,,,,,,02-2059-8577,2020-07-01,3210000,서울특별시 서초구
아이에스렌터카,영업소,경기도 양평군 양평읍 오빈역길3,,37.5035233022,127.474106,경기도 양평군 양평읍 오빈역길 3,경기도 양평군 양평읍 오빈역길3,,4,4,0,0,0,0,,,,,,,09:00,19:00,,,,,,,,02-2059-8578,2020-07-01,3210000,서울특별시 서초구
지지렌트카,주사업장,"서울특별시 서초구 서초대로 3-4, 비-121호 (방배동, 디오슈페리움1차)",,37.4860320650,126.983054,서울특별시 금천구 금하로14길  6-16,,,7,7,0,0,0,0,,,,,,,09:00,19:00,,,,,,,,02-532-7791,2020-07-01,3210000,서울특별시 서초구
지지렌트카,주사업장,"서울특별시 서초구 서초대로 3-4, 비-121호 (방배동, 디오슈페리움1차)",,37.4860320650,126.983054,"서울특별시 영등포구 양평동2가 40-3, 40-9","서울특별시 영등포구 양평동2가 40-3, 40-9",,89,88,1,0,0,0,,,,,,,09:00,19:00,,,,,,,,02-532-7791,2020-07-01,3210000,서울특별시 서초구
디에이에프에스,주사업장,"서울특별시 서초구 양재대로11길 36 은관103호 (양재동, 오토갤러리)",,37.461806,127.035344,서울특별시 강서고 마곡서로 157,,,73,73,0,0,0,0,,,,,,,08:30,17:30,,,,,,,,02-2059-5776,2020-07-01,3210000,서울특별시 서초구
케이밴코리아,주사업장,"서울특별시 서초구 청계산로 217, 1층",,37.446269,127.0573225291,서울특별시 서초구 청계산로 217,,,53,15,38,0,0,0,,,,,,,08:00,20:00,,,,,,,,02-6673-5500,2020-07-01,3210000,서울특별시 서초구
센트로렌터카,주사업장,"서울특별시 서초구 양재대로11길 36 금관 302호 (양재동, 오토갤러리)",,37.461806,127.035344,서울특별시 강서구 마곡서로 101 동익드미라벨 주차장,,,104,102,2,0,0,0,,,,,,,09:30,18:30,,,,,,,,02-3412-0829,2020-07-01,3210000,서울특별시 서초구
거성렌트카,주사업장,"서울특별시 서초구 청계산로 217, 2층 254호(신원동, 자연누리오피스텔)",,37.4462703607,127.0573225291,"서울특별시 동작구 흑석동 233-25,26,27,29,74","서울특별시 동작구 흑석동 233-25,26,27,29,74",,25,24,1,0,0,0,,,,,,,10:00,20:00,,,,,,,,02-2043-4888,2020-07-01,3210000,서울특별시 서초구
거성렌트카,영업소,경기도 남양주시 퇴계원면 퇴계원로 199,,37.6627940064,127.1486969620,경기도 남양주시 마치로 49,,,14,14,0,0,0,0,,,,,,,10:00,20:00,,,,,,,,02-2043-4889,2020-07-01,3210000,서울특별시 서초구
거성렌트카,영업소,"서울특별시 서초구 매헌로16길 6, 201호",,37.467286,127.034933,서울특별시 강서구 공항동 36-12,서울특별시 강서구 공항동 36-12,,10,10,0,0,0,0,,,,,,,10:00,20:00,,,,,,,,02-2043-4890,2020-07-01,3210000,서울특별시 서초구
투투렌트카,영업소,"울산광역시 남구 화합로 162, 1720호(삼산동,나인파크오피스텔)",,35.539135,129.3399396695,울산광역시 남구 여천로32번길 6(야음동),,,5,5,0,0,0,0,,,,,,,09:00,19:00,,,,,,,,02-599-0333,2020-07-01,3210000,서울특별시 서초구
도도렌트카,주사업장,서울특별시 서초구 홍씨마을길 3(내곡동),,37.4550204351,127.065303,서울특별시 강서구 마곡서로 157,,,225,219,6,0,0,0,,,,,,,09:00,20:00,,,,,,,,02-3461-1430,2020-07-01,3210000,서울특별시 서초구
도도렌트카,주사업장,서울특별시 서초구 홍씨마을길 3(내곡동),,37.4550204351,127.065303,서울특별시 종로구 삼일대로 437,,,1,1,0,0,0,0,,,,,,,09:00,20:00,,,,,,,,02-3461-1431,2020-07-01,3210000,서울특별시 서초구
도도렌트카,주사업장,서울특별시 서초구 홍씨마을길 3(내곡동),,37.4550204351,127.065303,서울특별시 성동구 왕십리로 342(도선동),,,273,260,13,0,0,0,,,,,,,09:00,20:00,,,,,,,,02-3461-1432,2020-07-01,3210000,서울특별시 서초구
도도렌트카,주사업장,서울특별시 서초구 홍씨마을길 3(내곡동),,37.4550204351,127.065303,서울특별시 강서구 마곡중앙6로 16(마곡동),,,45,44,1,0,0,0,,,,,,,09:00,20:00,,,,,,,,02-3461-1433,2020-07-01,3210000,서울특별시 서초구
도도렌트카,영업소,서울특별시 서초구 서리풀 4길 25(서초동),,37.4883269836,127.022055,서울특별시 강서구 마곡중앙6로 16(마곡동),,,10,0,0,0,0,0,,,,,,,09:00,20:00,,,,,,,,02-3461-1434,2020-07-01,3210000,서울특별시 서초구
도도렌트카,영업소,"서울특별시 중랑구 송림길 1, 74-1호(상봉동)",,37.5989695113,127.0950892503,서울특별시 강서구 마곡중앙6로 16(마곡동),,,7,5,2,0,0,0,,,,,,,09:00,20:00,,,,,,,,02-3461-1435,2020-07-01,3210000,서울특별시 서초구
도도렌트카,영업소,"서울특별시 송파구 삼학사로 11길 6, 1층(삼전동)",,37.501699,127.096191,서울특별시 강서구 마곡중앙6로 16(마곡동),,,6,4,2,0,0,0,,,,,,,09:00,20:00,,,,,,,,02-3461-1436,2020-07-01,3210000,서울특별시 서초구
도도렌트카,영업소,"경기도 부천시 부일로 205번길 26, 105호(상동)",,37.4896175643,126.7532818490,경기도 부천시 상동로 84(상동),,,12,12,0,0,0,0,,,,,,,09:00,20:00,,,,,,,,02-3461-1437,2020-07-01,3210000,서울특별시 서초구
도도렌트카,영업소,전라북도 정읍시 문학길 6-3(연지동),전라북도 정읍시 연지동 252-44,35.568819,126.844921,전라북도 정읍시 문학길 6-3(연지동),,,17,17,0,0,0,0,,,,,,,09:00,20:00,,,,,,,,02-3461-1438,2020-07-01,3210000,서울특별시 서초구
도도렌트카,영업소,전라북도 정읍시 문학길 6-3(연지동),전라북도 정읍시 연지동 252-44,35.568819,126.844921,전라북도 정읍시 동학로 133(흑암동),"전라북도 정읍시 흑암동 62, 68-3, 69-1",,17,16,1,0,0,0,,,,,,,09:00,20:00,,,,,,,,02-3461-1439,2020-07-01,3210000,서울특별시 서초구
도도렌트카,영업소,경기도 용인시 기흥구 서천서로 12번길 8-18(서천동 729-5),,37.240744,127.074573,경기도 용인시 수지구 풍덕천로 147번길 11,,,5,3,2,0,0,0,,,,,,,09:00,20:00,,,,,,,,02-3461-1440,2020-07-01,3210000,서울특별시 서초구
도도렌트카,영업소,부산광역시 사상구 낙동대로 910 B-148,,35.141905,128.971061,부산광역시 중구 중앙대로 154 1층,,,9,9,0,0,0,0,,,,,,,09:00,20:00,,,,,,,,02-3461-1441,2020-07-01,3210000,서울특별시 서초구
도도렌트카,영업소,경기도 시흥시 공단1대로 204(공구상가 제26동 318호),,37.3377115269,126.7247105763,경기도 시흥시 정왕동 2330 외 2필지,경기도 시흥시 정왕동 2330 외 2필지,,0,0,0,0,0,0,,,,,,,09:00,20:00,,,,,,,,02-3461-1442,2020-07-01,3210000,서울특별시 서초구
렌터카다모아,주사업장,서울특별시 서초구 마방로6길 7-35(양재동),,37.4765611983,127.043126,서울특별시 양천구 곰달래로3길 13,,,118,115,3,0,0,0,,,,,,,08:00,20:00,,,,,,,,1544-8586,2020-07-01,3210000,서울특별시 서초구
탑오렌지렌터카,주사업장,서울특별시 서초구 방배천로112(방배동),,37.486308,126.9840075187,서울특별시 서초구 서초동 1697-15,서울특별시 서초구 서초동 1697-15,,30,27,3,0,0,0,,,,,,,08:00,21:00,,,,,,,,02-474-7007,2020-07-01,3210000,서울특별시 서초구
탑오렌지렌터카,주사업장,서울특별시 서초구 방배천로112(방배동),,37.486308,126.9840075187,서울특별시 서초구 서초대로 17,,,21,21,0,0,0,0,,,,,,,08:00,21:00,,,,,,,,02-474-7007,2020-07-01,3210000,서울특별시 서초구
마스타자동차관리,주사업장,서울특별시 서초구 서초중앙로31길 6-5(반포동),,37.5003155097,127.011209,서울특별시 성북구 삼선3가 50 경동고등학교 주차장,서울특별시 성북구 삼선3가 50 경동고등학교 주차장,,50,50,0,0,0,0,,,,,,,09:00,18:00,,,,,,,,02-590-7045,2020-07-01,3210000,서울특별시 서초구
마스타자동차관리,주사업장,서울특별시 서초구 서초중앙로31길 6-5(반포동),,37.5003155097,127.011209,서울시특별시 종로구 대학로 57,,,141,141,0,0,0,0,,,,,,,09:00,18:00,,,,,,,,02-590-7045,2020-07-01,3210000,서울특별시 서초구
마스타자동차관리,주사업장,서울특별시 서초구 서초중앙로31길 6-5(반포동),,37.5003155097,127.011209,서울특별시 양천구 가로공원로 72,,,57,57,0,0,0,0,,,,,,,09:00,18:00,,,,,,,,02-590-7045,2020-07-01,3210000,서울특별시 서초구
마스타자동차관리,영업소,대전광역시 유성구 학하중앙로128번길 23-32(학하동),,36.339422,127.3074055532,대전광역시 유성구 대덕대로 590길 16,,,5,5,0,0,0,0,,,,,,,09:00,18:00,,,,,,,,02-590-7045,2020-07-01,3210000,서울특별시 서초구
마스타자동차관리,영업소,"충청남도 천안시 동남구 망향로 13(신부동, 104호)",,36.8282109981,127.1650100154,충청남도 천안시 서북구 두정로 203(두정동),,,0,0,0,0,0,0,,,,,,,09:00,18:00,,,,,,,,02-590-7045,2020-07-01,3210000,서울특별시 서초구
마스타자동차관리,영업소,전라북도 전주시 완산구 중화산로62(중화산동2가 616-13),,35.8156956317,127.118318,전주시 덕진구 고랑동3길 609-37외 5필지,,,6,5,1,0,0,0,,,,,,,09:00,18:00,,,,,,,,02-590-7045,2020-07-01,3210000,서울특별시 서초구
마스타자동차관리,영업소,부산광역시 사하구 을숙도대로 709(신평동),부산광역시 사하구 신평동 569-54,35.0856241121,128.9824297073,부산광역시 기장군 정관읍 구연로 19,,,5,5,0,0,0,0,,,,,,,09:00,18:00,,,,,,,,02-590-7045,2020-07-01,3210000,서울특별시 서초구
마스타자동차관리,영업소,전라남도 순천시 망북1길 35,,34.9805735788,127.5028050301,전라남도 순천시 망북1길 35,,,0,0,0,0,0,0,,,,,,,09:00,18:00,,,,,,,,02-590-7045,2020-07-01,3210000,서울특별시 서초구
마스타자동차관리,영업소,경기도 양주시 백석읍 부흥로 1204번길 35,,37.7909153742,127.0096002273,경기도 양주시 백석읍 부흥로 1204번길 35,,,0,0,0,0,0,0,,,,,,,09:00,18:00,,,,,,,,02-590-7045,2020-07-01,3210000,서울특별시 서초구
마스타자동차관리,영업소,경기도 용인시 기흥구 신정로 270-22,,37.2927530508,127.1011534250,"경기도 용인시 수지구 성복동 89번지, 성복동 70-1번지","경기도 용인시 수지구 성복동 89번지, 성복동 70-1번지",,5,5,0,0,0,0,,,,,,,09:00,18:00,,,,,,,,02-590-7045,2020-07-01,3210000,서울특별시 서초구
마스타자동차관리,영업소,"인천광역시 부평구 산곡동 369-87, 2층",,37.493111,126.704289,인천광역시 남동구 구월동 1142-6,,,0,0,0,0,0,0,,,,,,,09:00,18:00,,,,,,,,02-590-7045,2020-07-01,3210000,서울특별시 서초구
㈜광명렌트카,영업소,강원도 인제군 인제읍 비봉로 43,강원도 인제군 인제읍 상동리 96-3,38.0659160490,128.1749675443,강원도 인제군 인제읍 비봉로 43,강원도 인제군 인제읍 상동리 96-3,11,11,11,0,0,0,,,,,,,,09:00,18:00,09:00,18:00,09:00,18:00,연중무휴,,우일수,033-461-0038,2020-06-25,4330000,강원도 인제군
대한렌트카㈜,영업소,강원도 인제군 북면 금강로33번길 23-4,강원도 인제군 북면 원통리 705-25,38.1214547609,128.2043112829,강원도 인제군 북면 갈골로 24-132,강원도 인제군 북면 원통리 1441,3,3,3,0,0,0,,,,,,,,09:00,18:00,09:00,18:00,09:00,18:00,연중무휴,,김율영,033-461-7300,2020-06-25,4330000,강원도 인제군
삼보렌트카,주사업장,서울특별시 서초구 서초대로 127 1층(방배동),,37.488745,126.996099,서울특별시 중구 장충단로 72(장충동2가),"서울특별시 중구 장충동2가 201-6,7",,798,764,34,0,0,0,,,,,,,08:30,18:30,,,,,,,,02-591-9977,2020-07-01,3210000,서울특별시 서초구
삼보렌트카,영업소,충청북도 청주시 흥덕구 진재로110번길 37(복대동),충청북도 청주시 흥덕구 복대동 293-1,36.6400481862,127.4317893,충청북도 청주시 흥덕구 진재로110번길 37(복대동),,,24,24,0,0,0,0,,,,,,,08:30,18:30,,,,,,,,02-591-9977,2020-07-01,3210000,서울특별시 서초구
클로버렌트카,주사업장,"서울특별시 서초구 효령로 92, 2층 21호(방배동, 대우프라자)",,37.4801621795,126.994564,관악구 남현동 산 99-19,관악구 남현동 산 99-19,,26,26,0,0,0,0,,,,,,,09:00,18:00,,,,,,,,02-525-3860,2020-07-01,3210000,서울특별시 서초구
클로버렌트카,주사업장,"서울특별시 서초구 효령로 92, 2층 21호(방배동, 대우프라자)",,37.4801621795,126.994564,서울특별시 서초구 방배동 916-4,서울특별시 서초구 방배동 916-4,,10,10,0,0,0,0,,,,,,,09:00,18:00,,,,,,,,02-525-3860,2020-07-01,3210000,서울특별시 서초구
클로버렌트카,영업소,경기도 평택시 청북읍 고잔6길 119-13,,37.0408744095,126.8937143317,경기도 평택시 청북읍 고잔6길 119-13,,,191,175,16,0,0,0,,,,,,,09:00,18:00,,,,,,,,02-525-3860,2020-07-01,3210000,서울특별시 서초구
강남렌트카,주사업장,"서울특별시 서초구 바우뫼로 41길 72-2, 301호",,37.483516,127.0402329800,서울특별시 영등포구 국회대로22길20,,,34,34,0,0,0,0,,,,,,,09:00,18:00,,,,,,,,02-575-6486,2020-07-01,3210000,서울특별시 서초구
강남렌트카,영업소,경기도 성남시 수정구 시민로 173(신흥동),,37.443393,127.142342,경기도 성남시 분당구 서현로 180번길 19,,,29,29,0,0,0,0,,,,,,,09:00,18:00,,,,,,,,02-575-6486,2020-07-01,3210000,서울특별시 서초구
빵빵카,주사업장,서울특별시 서초구 신반포로23길 78-9(잠원동),,37.5117262362,127.0056508412,서울특별시 서초구 성촌4길 19,,,80,78,2,0,0,0,,,,,,,08:30,18:00,,,,,,,,02-592-0079,2020-07-01,3210000,서울특별시 서초구
빵빵카,주사업장,서울특별시 서초구 신반포로23길 78-9(잠원동),,37.5117262362,127.0056508412,서울특별시 서초구 우면동 700,서울특별시 서초구 우면동 700,,16,16,0,0,0,0,,,,,,,08:30,18:00,,,,,,,,02-592-0079,2020-07-01,3210000,서울특별시 서초구
케이티앤에스,주사업장,서울특별시 서초구 잠원로4길 54 116호(잠원동),,37.513006,127.012742,서울특별시 성북구 보문로 168(삼선동 5가),,,26,26,0,0,0,0,,,,,,,09:00,18:00,,,,,,,,02-571-5500,2020-07-01,3210000,서울특별시 서초구
케이티앤에스,주사업장,서울특별시 서초구 잠원로4길 54 116호(잠원동),,37.513006,127.012742,서울특별시 강남구 일원로 28,,,25,25,0,0,0,0,,,,,,,09:00,18:00,,,,,,,,02-571-5500,2020-07-01,3210000,서울특별시 서초구
케이티앤에스,영업소,"서울특별시 성동구 성수이로 118, 9층 922호",,37.545162,127.057868,서울특별시 성북구 보문로 168(삼선동 5가),,,0,0,0,0,0,0,,,,,,,09:00,18:00,,,,,,,,02-571-5500,2020-07-01,3210000,서울특별시 서초구
투투렌트카,주사업장,"서울특별시 서초구 신반포로3길 8 610호, 611호(반포동)",,37.502074,126.986873,서울특별시 금천구 시흥대로 435 (독산동),,,0,0,0,0,0,0,,,,,,,09:00,19:00,,,,,,,,02-599-0333,2020-07-01,3210000,서울특별시 서초구
투투렌트카,주사업장,"서울특별시 서초구 신반포로3길 8 610호, 611호(반포동)",,37.502074,126.986873,서울특별시 강서구 마곡서로 101,,,248,246,2,0,0,0,,,,,,,09:00,19:00,,,,,,,,02-599-0333,2020-07-01,3210000,서울특별시 서초구
투투렌트카,주사업장,"서울특별시 서초구 신반포로3길 8 610호, 611호(반포동)",,37.502074,126.986873,서울특별시 강동구 천호대로 1102(성내동),강동구 성내동 199-10,,30,30,0,0,0,0,,,,,,,09:00,19:00,,,,,,,,02-599-0333,2020-07-01,3210000,서울특별시 서초구
투투렌트카,주사업장,"서울특별시 서초구 신반포로3길 8 610호, 611호(반포동)",,37.502074,126.986873,서울특별시 동대문구 청계천로 525 청계주차장,,,0,0,0,0,0,0,,,,,,,09:00,19:00,,,,,,,,02-599-0333,2020-07-01,3210000,서울특별시 서초구
투투렌트카,주사업장,"서울특별시 서초구 신반포로3길 8 610호, 611호(반포동)",,37.502074,126.986873,"서울특별시 서초구 신반포로3길 8, B2","서울특별시 서초구 신반포로3길 8, B2",,180,180,0,0,0,0,,,,,,,09:00,19:00,,,,,,,,02-599-0333,2020-07-01,3210000,서울특별시 서초구
투투렌트카,영업소,"서울특별시 마포구 월드컵로 34길7, 203호",,37.5650618253,126.9030568374,서울특별시 동대문구 청계천로 525 청계주차장,,,30,30,0,0,0,0,,,,,,,09:00,19:00,,,,,,,,02-599-0333,2020-07-01,3210000,서울특별시 서초구
투투렌트카,영업소,"경기도 성남시 분당구 성남대로 165(금곡동, 천사의도시오피스텔 1차 766호)",,37.350746,127.108316,경기도 성남시 분당구 판교로 182-7(판교동),,,5,5,0,0,0,0,,,,,,,09:00,19:00,,,,,,,,02-599-0333,2020-07-01,3210000,서울특별시 서초구
투투렌트카,영업소,"인천광역시 연수구 아트센터대로 203, 비동 1621호",,37.395294,126.6312867736,인천광역시 연수구 테크노파크로 164(송도동),인천광역시 연수구 송도동 24-5,,5,5,0,0,0,0,,,,,,,09:00,19:00,,,,,,,,02-599-0333,2020-07-01,3210000,서울특별시 서초구
투투렌트카,영업소,"부산광역시 수영구 광안해변로 311, 제1층122, 122-1, 122-2, 122-3호",,35.157325,129.127418,부산광역시 강서구 신항남로 507,,,10,10,0,0,0,0,,,,,,,09:00,19:00,,,,,,,,02-599-0333,2020-07-01,3210000,서울특별시 서초구
투투렌트카,영업소,"부산광역시 수영구 광안해변로 311, 제1층122, 122-1, 122-2, 122-3호",,35.157325,129.127418,부산광역시 수영구 광안해변로 311,,,70,70,0,0,0,0,,,,,,,09:00,19:00,,,,,,,,02-599-0333,2020-07-01,3210000,서울특별시 서초구
투투렌트카,영업소,경상남도 창원시 마산회원구 양덕로13 703호(양덕동),,35.221978,128.592383,경상남도 창원시 성산구 마디미로38번길 11 코끼리주차장 7층(상남동),,,3,3,0,0,0,0,,,,,,,09:00,19:00,,,,,,,,02-599-0333,2020-07-01,3210000,서울특별시 서초구
투투렌트카,영업소,"대전광역시 유성구 테크노1로 12-22, A동 103호(관평동, 디티비안오피스텔)",,36.4299443692,127.387637,대전광역시 서구 둔산남로 50(탄방동),,,8,8,0,0,0,0,,,,,,,09:00,19:00,,,,,,,,02-599-0333,2020-07-01,3210000,서울특별시 서초구
투투렌트카,영업소,"광주광역시 서구 시청로 97, 1511호(치평동, 중흥S클래스스카이31)",,35.157482,126.850875,광주광역시 동구 백서로119번길 21(금동),광주광역시 동구 금동 41외 5필지,,10,10,0,0,0,0,,,,,,,09:00,19:00,,,,,,,,02-599-0333,2020-07-01,3210000,서울특별시 서초구
투투렌트카,영업소,"경상북도 포항시 남구 효성로63번길 19, 101호",,36.007876,129.340827,경상북도 포항시 북구 불종로 51(상원동),,,5,5,0,0,0,0,,,,,,,09:00,19:00,,,,,,,,02-599-0333,2020-07-01,3210000,서울특별시 서초구
㈜참신렌트카여행사,영업소,경상북도 안동시 경동로 178,,36.5743158967,128.6813383545,경상북도 안동시 공단로 36-16,,,4,4,0,0,0,,,,,,,,08:00,20:00,,,,,,,,054-843-2222,2020-07-13,5070000,경상북도 안동시
㈜신화오토렌탈,영업소,경상북도 안동시 경동로 418,,36.5696581386,128.7055218335,경상북도 안동시 경북대로 561,,,0,0,0,0,0,,,,,,,,08:00,20:00,,,,,,,,053-984-6674,2020-07-13,5070000,경상북도 안동시
㈜오케이렌트카의성영업소,영업소,경상북도 의성군 안계면 서부로 1772,경상북도 의성군 안계면 용기리 928-18,36.39140709,128.4332221,경상북도 의성군 안계면 서부로 1772,경상북도 의성군 안계면 용기리 928-1,,5,4,1,0,0,,,90000,,150000,,,00:00,23:59,,,,,무휴,없음,김종탁,054-862-6669,2020-06-30,5150000,경상북도 의성군
㈜일박이일렌트카의성영업소,영업소,경상북도 의성군 의성읍 홍술로 89-13,경상북도 의성군 의성읍 원당리 17-8,36.35580145,128.6866624,경상북도 의성군 의성읍 홍술로 89-13,경상북도 의성군 의성읍 원당리 17-8,,0,0,0,0,0,,,80000,,120000,,,00:00,23:59,,,,,무휴,없음,백종민,054-833-7575,2020-06-30,5150000,경상북도 의성군
㈜경동렌트카의성영업소,영업소,경상북도 의성군 의성읍 훙술로 89-13,경상북도 의성군 의성읍 원당리 17-8,36.3558014529,128.6866600738,경상북도 의성군 의성읍 홍술로 89-13,경상북도 의성군 의성읍 원당리 17-8,,0,0,0,0,0,,,80000,,120000,,,00:00,23:59,,,,,무휴,없음,서상기,054-833-7575,2020-06-30,5150000,경상북도 의성군
이지렌트카,영업소,전라남도 화순군 한천면 덕음로 291-5,,34.99964566,126.9920823,전라남도 화순군 한천면 덕음로 291-5,전라남도 화순군 한천면 덕음로 291-5,,102,96,6,0,0,,,,,,,,09:00,21:00,,,,,,,임종철,061-927-8585,2020-07-10,4900000,전라남도 화순군
한길렌트카 장흥영업소,영업소,전라남도 장흥군 장흥읍 장흥로90,전라남도 장흥군 장흥읍 원도리 279-1,34.685448285,126.912166208,전라남도 장흥군 장흥읍 장흥로90,전라남도 장흥군 장흥읍 원도리 279-1,300,3,2,1,0,0,0,0,0,0,0,0,0,09:00,18:00,09:00,18:00,09:00,18:00,,,임양배,061-862-7899,2020-07-13,4910000,전라남도 장흥군
㈜정투청렌트카,주사업장,경상북도 문경시 모전로 177,,36.596588,128.1874528955,경상북도 문경시 신기로 70,,,50,44,6,0,0,,,,,,,,09:00,18:00,,,,,,,,054-552-7790,2020-07-10,5120000,경상북도 문경시
골드렌트카,영업소,경상북도 문경시 점촌역길 3,,36.595436,128.202761,경상북도 문경시 점촌역길 3,,,6,4,2,0,0,,,,,,,,09:00,18:00,,,,,,,,054-555-3100,2020-07-10,5120000,경상북도 문경시
㈜경원렌트카 문경영업소,영업소,경상북도 문경시 신흥로 154,,36.594685,128.201945,경상북도 문경시 공평동 51-4,,,6,4,2,0,0,,,,,,,,09:00,18:00,,,,,,,,054-552-2700,2020-07-10,5120000,경상북도 문경시
㈜영호렌트카 문경영업소,영업소,경상북도 문경시 신흥로 21,,36.5859013076,128.1942329,경상북도 문경시 농암면 청화로 1123,,,7,4,3,0,0,,,,,,,,09:00,18:00,,,,,,,,054-555-6420,2020-07-10,5120000,경상북도 문경시
㈜인스렌터카 문경영업소,영업소,경상북도 문경시 용지마길 11,,36.5820238879,128.1948726067,경상북도 문경시 용지마길 11,,,7,7,0,0,0,,,,,,,,09:00,18:00,,,,,,,,054-555-0051,2020-07-10,5120000,경상북도 문경시
조은렌트카㈜ 문경영업소,영업소,경상북도 문경시 매봉로 121,,36.5918172184,128.186136,경상북도 문경시 매봉로 121,,,7,1,6,0,0,,,,,,,,09:00,18:00,,,,,,,,054-556-8254,2020-07-10,5120000,경상북도 문경시
㈜굿모닝렌트카 문경영업소,영업소,경상북도 문경시 매봉로 104,,36.5911937422,128.1843626906,경상북도 문경시 매봉로 104,,,7,7,0,0,0,,,,,,,,09:00,18:00,,,,,,,,054-553-3839,2020-07-10,5120000,경상북도 문경시
MK렌트카 문경영업소,영업소,경상북도 문경시 매봉로 104,,36.5911937422,128.1843626906,경상북도 문경시 매봉로 104,,,13,12,1,0,0,,,,,,,,09:00,18:00,,,,,,,,054-553-3839,2020-07-10,5120000,경상북도 문경시
롯데렌탈카,영업소,경상북도 문경시 중앙로 3-7,,36.5873162164,128.1918791931,경상북도 문경시 모전동 106-73,,,10,8,2,0,0,,,,,,,,09:00,18:00,,,,,,,,054-556-5645,2020-07-10,5120000,경상북도 문경시
(주)금성,주사업장,강원도 춘천시 공원4길 2,,37.8614075,127.7252249,강원도 춘천시 중앙로1가 91,,52,368,147,221,0,0,0,0,0,0,0,0,0,09:00,18:00,09:00,18:00,09:00,18:00,0,0,이송휘,033-252-5355,2020-07-13,4180000,강원도 춘천시
제너스렌트카(주),주사업장,강원도 춘천시 효석로 9-4,,37.86472064,127.733114,강원도 춘천시 효석로 9-4,,1208,70,64,6,0,0,0,0,0,0,0,0,0,09:00,18:00,09:00,18:00,09:00,18:00,0,0,이종안,033-243-5888,2020-07-13,4180000,강원도 춘천시
대한렌트카(주),주사업장,강원도 춘천시 효자로 41,,37.868064,127.7285179,강원도 춘천시 효자로 41,,1332,270,232,38,0,0,0,0,0,0,0,0,0,09:00,18:00,09:00,18:00,09:00,18:00,0,0,강주만,033-256-3006,2020-07-13,4180000,강원도 춘천시
(주)광명렌트카,주사업장,강원도 춘천시 공지로 426,,37.87373776,127.720226,강원도 춘천시 공지로 426,,1120,183,163,20,0,0,0,0,0,0,0,0,0,09:00,18:00,09:00,18:00,09:00,18:00,0,0,우일수,033-252-5288,2020-07-13,4180000,강원도 춘천시
(주)씨에스렌트카,주사업장,서울특별시 용산구 원효로 86,,37.5318492751,126.9536316493,양재대로12길 25,,,50,45,5,0,0,,,,,,,,00:00,24:00,,,,,,,,02-798-0008,2020-07-08,3020000,서울특별시 용산구
㈜건아렌트카,주사업장,서울특별시 용산구 독서당로 23,,37.5306075704,127.0071682853,독서당로 23,,,78,7,71,0,0,,,,,,,,00:00,24:00,,,,,,,,02-798-2410,2020-07-08,3020000,서울특별시 용산구
㈜렌트온,주사업장,서울특별시 용산구 한남대로10길 60,,37.5331519190,127.0083678092,양천구 중앙로29길 41,,,50,45,5,0,0,,,,,,,,00:00,24:00,,,,,,,,02-798-2080,2020-07-08,3020000,서울특별시 용산구
㈜코리도어,주사업장,서울특별시 용산구 원효로 268,,37.5409331621,126.9704493762,미8군부대내,,,50,45,5,0,0,,,,,,,,00:00,24:00,,,,,,,,02-6383-2570,2020-07-08,3020000,서울특별시 용산구
에이제이렌터카㈜,영업소,강원도 인제군 인제읍 비봉로 37-1,강원도 인제군 인제읍 상동리 249-5,38.0661986210,128.1744570109,강원도 인제군 인제읍 비봉로 15번길 4,"강원도 인제군 인제읍 상동리 256-1, 3",30,85,83,2,0,0,,,,,,,,09:00,18:00,09:00,18:00,09:00,18:00,연중무휴,www.ajrentacar.co.kr,김도균,033-461-4446,2020-06-25,4330000,강원도 인제군
㈜로또렌터카,영업소,강원도 인제군 북면 금강로 29,강원도 인제군 북면 원통리 650-5,38.1227565544,128.206377,강원도 인제군 북면 금강로 29,강원도 인제군 북면 원통리 650-5,5,3,3,0,0,0,,,,,,,,09:00,18:00,09:00,18:00,09:00,18:00,연중무휴,,홍성희,033-462-8822,2020-06-25,4330000,강원도 인제군
㈜글로리렌터카,영업소,강원도 인제군 인제읍 비봉로44번길 59,강원도 인제군 인제읍 남북리 792-1,38.0623358329,128.169363,강원도 인제군 인제읍 비봉로44번길 55,강원도 인제군 인제읍 남북리 792-3,1,1,1,0,0,0,,,,,,,,09:00,18:00,09:00,18:00,09:00,18:00,연중무휴,,민겸욱,033-463-8294,2020-06-25,4330000,강원도 인제군
㈜현대관광렌트카,영업소,강원도 인제군 인제읍 비봉로 37-1,강원도 인제군 인제읍 상동리 249-5,38.0661986210,128.1744570109,강원도 인제군 인제읍 비봉로 15번길 4,강원도 인제군 인제읍 상동리 256-1,3,3,1,2,0,0,,,,,,,,09:00,18:00,09:00,18:00,09:00,18:00,연중무휴,,김도균,033-461-4446,2020-06-25,4330000,강원도 인제군
㈜조은렌트카,영업소,충청남도 부여군 부여읍 동문로 142번길 2,,36.2646567957,126.9441807476,충청남도 부여군 부여읍 신기정로 72-23,충청남도 부여군 부여읍 군수리 49,66,3,3,0,0,0,,,,,,,,08:30,19:00,,,,,,,장창기,041-836-5858,2020-06-30,4570000,충청남도 부여군
(주)스마트렌트카,영업소,충청남도 부여군 규암면 내동로 11,,36.2696971255,126.8848553954,충청남도 부여군 은산면 은남로 92-18,충청남도 부여군 은산면 가중리 345-10,6600,316,291,25,0,0,,,,,,,,09:00,18:00,,,,,,,홍석희,042-488-2141,2020-06-30,4570000,충청남도 부여군
㈜삼성렌트카,영업소,충청남도 부여군 부여읍 신기정로 72-23,,36.2659492638,126.9068150412,충청남도 부여군 구룡면 흥수로 215,충청남도 부여군 구룡면 태양리 82-2,165,16,12,4,0,0,,,,,,,,09:00,19:00,,,,,,,백종덕,041-833-5020,2020-06-30,4570000,충청남도 부여군
(자)기풍렌트카,영업소,충청남도 부여군 부여읍 계백로 322-1,,36.2759447333,126.9157827172,충청남도 부여군 규암면 진변로 39-5,충청남도 부여군 규암면 규암리 18-8,160,4,3,1,0,0,,,,,,,,08:00,20:00,,,,,,,김대호,041-835-1577,2020-06-30,4570000,충청남도 부여군
신형렌트카,주사업장,충청북도 제천시 의림대로 1,충청북도 제천시 영천동 1381-1,37.128453,128.204112,충청북도 제천시 의림대로 1,충청북도 제천시 영천동 1381-1,60,34,31,3,0,0,50000,60000,70000,120000,120000,,,06:00,22:00,06:00,22:00,06:00,22:00,"설,추석 당일",ww.w신형렌트카.com,정우영,043-645-5888,2020-07-09,4400000,충청북도 제천시
삼지렌트카,주사업장,충청북도 제천시 청전대로 93,충청북도 제천시 청전동 197-6,37.148717,128.208703,충청북도 제천시 청전대로 93,충청북도 제천시 청전동 197-6,53,45,40,5,1,0,,60000,70000,120000,120000,,,08:30,22:00,08:30,22:00,00:00,00:00,"설,추석 당일",www.3grentcar.com,강민석,043-648-1006,2020-07-09,4400000,충청북도 제천시
베스트렌트카,영업소,"충청북도 제천시 원화산로 154, 2층",충청북도 제천시 동현동 358,37.130129,128.220456,충청북도 제천시 원화산로 154,충청북도 제천시 동현동 358,18,16,15,1,0,0,50000,70000,80000,120000,110000,,,08:00,19:00,08:00,19:00,08:00,19:00,연중무휴,www.bestrentcar.kr,김광태,043-646-1777,2020-07-09,4400000,충청북도 제천시
