육교명,도로종류,도로노선번호,도로노선명,소재지도로명주소,위도,경도,육교연장,육교높이,허용통행하중,통행제한높이,육교폭,난간높이,조명개수,장애인편의시설설치여부,장애인편의시설종류,장애인편의시설수량,부대시설종류,부대시설수량,육교준공일자,내진설계적용여부,안전등급,사용제한구분,육교보수보강내역,최종안전점검유형,최종안전점검일자,관리기관명,데이터기준일자,제공기관코드,제공기관명
옥포육교,시도,대로1-1호선,도시계획도로 대로1-1호선,경상남도 거제시 옥포동 산93-7,34.887436,128.692443,30,,,5,2.5,,,N,없음,,,,,,양호,제한없음,,정기점검,2017-09-22,거제시청,2020-02-19,5370000,경상남도 거제시
고현초 통학육교,시도,중로1-3호선,도시계획도로 중로1-3호선,경상남도 거제시 상동동 487,34.874311,128.628894,60,,,5,3,,,N,없음,,,,,,양호,제한없음,,정기점검,2017-09-22,거제시청,2020-02-19,5370000,경상남도 거제시
금당육교,일반국도,2,없음,전라남도 광양시 금호동 624-21,34.936176,127.726053,35,,,4.7,3,,,Y,경사로,,,,1989-01-01,,보통,제한없음,,정기점검,2018-12-31,전라남도 광양시,2020-03-24,4840000,전라남도 광양시
백운육교,일반국도,2,없음,전라남도 광양시 금호동 674,34.942383,127.724737,35,,,5.4,3,,,Y,경사로,,,,1996-01-01,,보통,제한없음,,정기점검,2018-12-31,전라남도 광양시,2020-03-24,4840000,전라남도 광양시
창대보도육교,기타,X,X,경기도 양평군 양평읍 역전길 2,37.4912443313,127.4889211591,20,7,,5,4,1.5,2,N,N,,,,,N,양호,제한없음,"바닥, 시설물 보수",정기점검,2019-12-31,양평군,2020-03-01,4170000,경기도 양평군
양평보도육교,기타,X,X,경기도 양평군 양평읍 양근로 260,37.4857472496,127.4957033925,85,7,,5,4,1.5,4,N,N,,,,,N,양호,제한없음,"바닥, 시설물 보수",정기점검,2019-12-31,양평군,2020-03-01,4170000,경기도 양평군
양동보도육교,기타,X,X,경기도 양평군 양동면 양동역길 19,37.4215396917,127.7532902404,50,7,,5,4,1.5,3,N,N,,,,,N,양호,제한없음,"바닥, 시설물 보수",정기점검,2019-12-31,양평군,2020-03-01,4170000,경기도 양평군
장기육교2,시도,김포한강1로,김포한강1로,경기도 김포시 장기동 1798,37.641566,126.666898,30,,,5.0,5.1,1,6,Y,승강기,2,,,2008-01-01,N,보통,제한없음,,정기점검,2020-02-20,김포시도로관리과,2020-02-27,4090000,경기도 김포시
한가람육교,시도,김포한강7로,김포한강7로,경기도 김포시 구래동 6922,37.6372701,126.631322,37,,,4.5,5.5,1,44,N,해당없음,,,,2014-01-01,N,보통,제한없음,,정기점검,2020-02-20,김포시도로관리과,2020-02-27,4090000,경기도 김포시
나비육교,시도,김포한강3로,김포한강3로,경기도 김포시 구래동 6906,37.641416,126.6301633,72,,,4.5,16.0,1,398,N,해당없음,,,,2014-01-01,N,보통,제한없음,,정기점검,2020-02-20,김포시도로관리과,2020-02-27,4090000,경기도 김포시
솔터육교,시도,김포한강3로,김포한강3로,경기도 김포시 마산동 691-1,37.6389349,126.636186,44,,,4.5,7.5,1,52,N,해당없음,,,,2014-01-01,N,보통,제한없음,,정기점검,2020-02-20,김포시도로관리과,2020-02-27,4090000,경기도 김포시
은여울육교,시도,김포한강3로,김포한강3로,경기도 김포시 마산동 691-1,37.6389349,126.636186,44,,,4.5,7.5,1,140,N,해당없음,,,,2014-01-01,N,보통,제한없음,,정기점검,2020-02-20,김포시도로관리과,2020-02-27,4090000,경기도 김포시
고창육교,시도,김포한강3로,김포한강3로,경기도 김포시 장기동 1888-22,37.6421535,126.656937,40,,,4.5,5.5,1,194,Y,승강기,2,,,2014-01-01,N,보통,제한없음,,정기점검,2020-02-20,김포시도로관리과,2020-02-27,4090000,경기도 김포시
수정육교,시도,김포대로,김포대로,경기도 김포시 장기동 1923,37.6475225,126.6774076,52,,,4.5,5.5,1,107,Y,승강기,2,,,2014-01-01,N,보통,제한없음,,정기점검,2020-02-20,김포시도로관리과,2020-02-27,4090000,경기도 김포시
호수육교,시도,김포한강5로,김포한강5로,경기도 김포시 양곡리 1539,37.6514716,126.6285925,46,,,4.5,5.5,1,141,Y,승강기,2,,,2014-01-01,N,보통,제한없음,,정기점검,2020-02-20,김포시도로관리과,2020-02-27,4090000,경기도 김포시
은여울공원육교,시도,김포한강8로,김포한강8로,경기도 김포시 마산동 694-3,37.6363621,126.6347321,24,,,4.5,7.0,1,,N,해당없음,,,,2016-03-31,N,보통,제한없음,,정기점검,2020-02-20,김포시도로관리과,2020-02-27,4090000,경기도 김포시
연향육교,시도,2번,백강로,전라남도 순천시 명말1길 53-1 (연향동),34.9423705014,127.5222491519,90,,,4.5,,,,N,N,,,,1984-01-01,N,보통,제한없음,,정기점검,2019-12-05,순천시청 도로과,2020-02-12,4820000,전라남도 순천시
여상육교,시도,2번,녹색로,전라남도 순천시 녹색로 1636 (덕월동),34.9263701719,127.4908818464,24.7,,,4.4,,,,N,N,,,,1991-01-01,N,보통,제한없음,,정기점검,2019-12-05,순천시청 도로과,2020-02-12,4820000,전라남도 순천시
이수육교,시도,2번,이수로,전라남도 순천시 이수로 171-1 (생목동),34.9490719769,127.5046138007,13.4,,,4.5,,,,N,N,,,,1991-01-01,N,보통,제한없음,,정기점검,2019-12-05,순천시청 도로과,2020-02-12,4820000,전라남도 순천시
조례육교2,시도,2번,순광로,전라남도 순천시 순광로 17 (조례동),34.9551236488,127.5229825468,26,,,4.2,,,,N,N,,,,1992-01-01,N,보통,제한없음,,정기점검,2019-12-05,순천시청 도로과,2020-02-12,4820000,전라남도 순천시
군포부곡 보도육교,시도,없음,번영로,경기도 군포시 부곡동 번영로,37.323705,126.939924,129.3,,,4.5,4,,,Y,경사로,2,엘리베이터+캐노피,5,2010-01-01,Y,보통,제한없음,,정기점검,2018-05-04,군포시 군포시청,2018-08-27,4020000,경기도 군포시
삼성보도육교,시도,없음,삼성로,경기도 군포시 부곡동 삼성로,37.338286,126.931889,32,,,5,5,,,Y,경사로,2,캐노피,3,2014-01-01,Y,보통,제한없음,,정기점검,2018-05-04,군포시 군포시청,2018-08-27,4020000,경기도 군포시
마송육교1,일반국도,48번,김포대로,경기도 김포시 마송리 589,37.686773,126.590259,57,,,4.5,4.0,1,,N,해당없음,,,,2008-01-01,N,보통,제한없음,,정기점검,2020-02-20,김포시도로관리과,2020-02-27,4090000,경기도 김포시
마송육교2,일반국도,48번,김포대로,경기도 김포시 마송리 589,37.687265,126.590619,51,,,4.5,4.0,1,,N,해당없음,,,,2008-01-01,N,보통,제한없음,,정기점검,2020-02-20,김포시도로관리과,2020-02-27,4090000,경기도 김포시
양곡육교1,지방도,356호선,양곡4로,경기도 김포시 양곡리 1503,37.6625476,126.633914,31,,,5.4,4.0,1,,N,해당없음,,,,2008-01-01,N,보통,제한없음,,정기점검,2020-02-20,김포시도로관리과,2020-02-27,4090000,경기도 김포시
양곡육교2,시도,356호선,양곡4로,경기도 김포시 양곡리 1518,37.6560249,126.6306603,32,,,5.4,4.0,1,,N,해당없음,,,,2008-01-01,N,보통,제한없음,,정기점검,2020-02-20,김포시도로관리과,2020-02-27,4090000,경기도 김포시
양곡육교3,지방도,356호선,양곡4로,경기도 김포시 양곡리 1503,37.6625476,126.633914,33,,,5.0,4.0,1,,N,해당없음,,,,2008-01-01,N,보통,제한없음,,정기점검,2020-02-20,김포시도로관리과,2020-02-27,4090000,경기도 김포시
장기육교1,시도,김포한강2로,김포한강2로,경기도 김포시 장기동 1799,37.642871,126.664973,26,,,5.0,4.2,1,6,Y,승강기,2,,,2008-01-01,N,보통,제한없음,,정기점검,2020-02-20,김포시도로관리과,2020-02-27,4090000,경기도 김포시
터미널육교,시도,대로 1-1,좌수영로,전라남도 여수시 좌수영로 268,34.758086,127.716283,35,4.8,,4.8,3,1.5,2,Y,엘리베이터+점자블럭,2,엘리베이터,2,2002-01-01,N,양호,제한없음,,정기점검,2018-11-26,여수시,2019-03-18,4810000,전라남도 여수시
시전육교,시도,대로 3-21,새터로,전라남도 여수시 새터로 47,34.760631,127.674751,23.4,4.8,,4.8,3,1.5,2,Y,엘리베이터+점자블럭,2,엘리베이터,2,2004-01-01,N,양호,제한없음,,정기점검,2018-11-26,여수시,2019-03-18,4810000,전라남도 여수시
시전2육교,시도,중로 1-65,여천체육공원길,전라남도 여수시 여천체육공원길 24,34.761454,127.675593,33.6,4.8,,4.8,3,1.5,20,Y,점자블럭,1,,,2004-01-01,N,양호,제한없음,,정기점검,2018-11-26,여수시,2019-03-18,4810000,전라남도 여수시
라온육교,시도,중로 1-11,상암로,전라남도 여수시 봉계동 산 151-1,34.783835,127.695611,22.9,4.8,,4.8,3,1.5,2,N,없음,,,,2006-01-01,N,양호,제한없음,,정기점검,2018-11-26,여수시,2019-03-18,4810000,전라남도 여수시
웅천육교,시도,대로 2-18,웅천로,전라남도 여수시 웅천동 1740,34.748672,127.677565,40,4.5,,4.5,4,1.5,0,Y,경사로,1,,,2010-01-01,N,양호,제한없음,,정기점검,2018-11-26,여수시,2019-03-18,4810000,전라남도 여수시
좌수영다리,시도,대로 3-1,동문로,전라남도 여수시 고소2길 3-1,34.741352,127.737375,38,4.5,,4.5,4,1.5,1,N,없음,,,,2012-01-01,N,양호,제한없음,,정기점검,2018-11-26,여수시,2019-03-18,4810000,전라남도 여수시
심곡보도교,시도,소로 3-724,없음,전라남도 여수시 소라면 죽림리 1174,34.762499,127.634440,12.2,3.8,,3.8,6,1.5,0,N,없음,,,,2010-01-01,N,양호,제한없음,,정기점검,2018-11-26,여수시,2019-03-18,4810000,전라남도 여수시
심곡다리,시도,소공원,없음,전라남도 여수시 소라면 죽림리 1220,34.761388,127.638192,12,3.8,,3.8,2,1.5,0,N,없음,,,,2010-01-01,N,양호,제한없음,,정기점검,2018-11-26,여수시,2019-03-18,4810000,전라남도 여수시
봉강육교,시도,대로 3-5,한재로,전라남도 여수시 한재로 170-2,34.743048,127.726318,17,6,,6,3.5,1.5,2,N,없음,,,,1990-01-01,N,양호,제한없음,,정기점검,2018-11-26,여수시,2019-03-18,4810000,전라남도 여수시
봉산육교,시도,소로 2-539,봉산서3길,전라남도 여수시 봉산서3길 14-4,34.736583,127.719911,13.6,1.4,,1.4,1.8,1.5,2,N,없음,,,,2002-01-01,N,양호,제한없음,,정기점검,2018-11-26,여수시,2019-03-18,4810000,전라남도 여수시
엄사육교,기타,01월 03일,대로,충청남도 계룡시 엄사면 엄사리 95-7,36.292687,127.242539,183,5,5,5,33,1.1,10,Y,경사로,2,,,, ,양호,제한없음,,정기점검,2017-11-24,계룡시,2018-08-14,5580000,충청남도 계룡시
산본역 보도육교,시도,없음,번영로,경기도 군포시 금정동 번영로,37.358035,126.933015,134.6,6.15,,4.5,6.8,1,,Y,점자블럭+경사로,7,캐노피,4,1996-01-01,N,보통,제한없음,,정기점검,2018-05-04,군포시 군포시청,2018-08-27,4020000,경기도 군포시
둔전초교 보도육교,시도,없음,고산로,경기도 군포시 산본동 고산로,37.360788,126.923035,44,,,4.3,4.7,,,Y,경사로,2,없음,0,1996-01-01,N,보통,제한없음,,정기점검,2018-05-04,군포시 군포시청,2018-08-27,4020000,경기도 군포시
산본 보도육교,시도,없음,고산로,경기도 군포시 산본동 고산로,37.374389,126.938303,27.6,5.85,,4.8,4,1,,N,없음,0,없음,0,1996-01-01,N,보통,제한없음,,정기점검,2018-05-04,군포시 군포시청,2018-08-27,4020000,경기도 군포시
군포초교 보도육교,시도,없음,군포로,경기도 군포시 당동 군포로,37.348179,126.943575,29,5.5,,4.5,4,1,,N,없음,0,없음,0,1989-01-01,N,보통,제한없음,,정기점검,2018-05-04,군포시 군포시청,2018-08-27,4020000,경기도 군포시
4단지 보도육교,시도,없음,번영로,경기도 군포시 산본동 번영로,37.349687,126.925602,28.1,,,4.5,4,,,N,없음,0,엘리베이터,2,1996-01-01,N,보통,제한없음,,정기점검,2018-05-04,군포시 군포시청,2018-08-27,4020000,경기도 군포시
금정I.C 보도육교,시도,없음,군포로,경기도 군포시 금정동 군포로,37.365722,126.946886,54.5,,,6,3,,,N,없음,0,없음,0,1996-01-01,N,보통,제한없음,,정기점검,2018-05-04,군포시 군포시청,2018-08-27,4020000,경기도 군포시
태을초교앞 보도육교,시도,없음,산본로,경기도 군포시 산본동 산본로,37.372352,126.927257,41.5,6.1,,4.5,2.5,1,,Y,경사로,2,캐노피,7,1996-01-01,Y,보통,제한없음,,정기점검,2018-05-04,군포시 군포시청,2018-08-27,4020000,경기도 군포시
당동 보도육교,시도,없음,고산로,경기도 군포시 당동 고산로,37.348067,126.940384,41,,,4.5,4,,,Y,경사로,3,캐노피,14,2005-01-01,N,보통,제한없음,재도장,정기점검,2018-05-04,군포시 군포시청,2018-08-27,4020000,경기도 군포시
금정역북부역사육교,시도,없음,고산로,경기도 군포시 산본동 군포로,37.372572,126.942764,36.8,,,6.8,5,,,Y,점자블럭,7,엘리베이터+캐노피,5,2006-01-01,N,보통,제한없음,,정기점검,2018-05-04,군포시 군포시청,2018-08-27,4020000,경기도 군포시
성지중학교 앞 육교,시도,대로1-1호선,도시계획도로 대로1-1호선,경상남도 거제시 거제대로 3702,34.887013,128.6925043414,30.3,,,5,2.5,,,N,없음,,,,,,보통,제한없음,,정기점검,2017-09-22,거제시청,2020-02-19,5370000,경상남도 거제시
송정육교,시도,대로1-1호선,도시계획도로 대로1-1호선,경상남도 거제시 거제대로 4061-1,34.914343,128.675031,39.5,,,4.5,3.5,,,Y,엘리베이터,,,,,,양호,제한없음,,정기점검,2017-09-22,거제시청,2020-02-19,5370000,경상남도 거제시
중곡육교,시도,대로1-1호선,도시계획도로 대로1-1호선,경상남도 거제시 중곡로1길 7,34.892707,128.630085,43.66,,,4.5,4,,,Y,엘리베이터,,,,,,보통,제한없음,,정기점검,2017-09-22,거제시청,2020-02-19,5370000,경상남도 거제시
신안육교,기타,대로 3-2,대로 3-2,충청남도 천안시 동남구 원성동 195-15,37.4248279,127.0942706,16,4,,4,4,1,2,N,무,,,,1982-01-01, ,양호,제한없음,도색,정기점검,2017-09-11,천안시 동남구,2019-02-18,4490000,충청남도 천안시
서부육교,기타,대로 1-2,대로 1-2,충청남도 천안시 동남구 봉명동 192-5,37.424628,127.0758939,28,4,,5,4,1,8,N,경사로,1,,,2007-01-01, ,양호,제한없음,도색,정기점검,2017-09-11,천안시 동남구,2019-02-18,4490000,충청남도 천안시
태조산구름다리,기타,무,무,충청남도 천안시 동남구 유량동 1-3,37.4329781,127.1133872,62,18,,18,1,1,0,N,무,,,,1997-01-01, ,양호,제한없음,도색,정기점검,2017-09-11,천안시 동남구,2019-02-18,4490000,충청남도 천안시
송도곡각지 앞 육교,시도,1-8호선,대로,"부산광역시 서구 감천로, 충무대로",35.078649,129.018301,66.5,6,,5.5,3,1.2,6,Y,승강기,1,,,1995-12-31, ,양호,제한없음,2018.12.(재도장 완료),정기점검,2019-03-04,부산광역시 서구청,2019-09-27,3260000,부산광역시 서구
동신초등학교 앞 육교,시도,3-7호선,광로,부산광역시 서구 보수대로,35.114451,129.019473,35,5,,4.5,3,1.2,6,N,없음,,,,1986-12-31, ,양호,제한없음,2018.05.(재도장 완료),정기점검,2019-03-04,부산광역시 서구청,2019-09-27,3260000,부산광역시 서구
구덕야구장 앞 육교,시도,3-7호선,광로,부산광역시 서구 보수대로,35.116255,129.017289,50.5,5,,4.5,3.5,1.2,4,Y,승강기,1,,,1986-12-31, ,양호,제한없음,2019.05.(재도장 예정),정기점검,2019-03-04,부산광역시 서구청,2019-09-27,3260000,부산광역시 서구
부산여중 앞 육교,시도,3-7호선,광로,부산광역시 서구 보수대로,35.118217,129.015319,35,5,,4.5,4,1.2,4,Y,승강기,1,,,1986-12-31, ,양호,제한없음,2018.12.(재도장 완료),정기점검,2019-03-04,부산광역시 서구청,2019-09-27,3260000,부산광역시 서구
구덕초등학교 앞 육교,시도,3-7호선,광로,부산광역시 서구 보수대로,35.119767,129.012297,34,5.5,,5,4,1.2,3,Y,승강기,1,,,1986-12-31, ,양호,제한없음,2019.05.(재도장 예정),정기점검,2019-03-04,부산광역시 서구청,2019-09-27,3260000,부산광역시 서구
교연1육교,기타,대로2-1,교연로,충청북도 진천군 덕산읍 여안2길 6-7,36.9097613963,127.5337022135,,,,5,,,,Y,점자블럭+승강기,,,,,Y,양호,사용제한,,정기점검,2018-11-01,진천군청 안전건설과,2019-06-11,4450000,충청북도 진천군
교연2육교,기타,대로2-1,교연로,충청북도 진천군 덕산읍 여안2길 6-7,36.9097613963,127.5337022135,,,,5,,,,Y,점자블럭+승강기,,,,,Y,양호,사용제한,,정기점검,2018-11-01,진천군청 안전건설과,2019-06-11,4450000,충청북도 진천군
보행육교3,기타,대로3-2,연미로,충청북도 진천군 덕산읍 여안1길 33,36.9091839472,127.5314584763,,,,4.5,,,,Y,점자블럭+승강기,,,,,Y,양호,사용제한,,정기점검,2018-11-01,진천군청 안전건설과,2019-06-11,4450000,충청북도 진천군
보건소 앞 육교,일반국도,34번,일반국도34호선,경상북도 영덕군 영덕읍 경동로 8367,36.418174,129.367564,23.1,4.8,,4.8,2.3,1.5,0,N,없음,,없음,,,N,보통,제한없음,,정기점검,2018-12-01,포항국토관리사무소,2019-09-19,5180000,경상북도 영덕군
신현중뒤육교,시도,대로1-1호선,도시계획도로 대로1-1호선,경상남도 거제시 장평로1길 4,34.889949,128.616468,31.7,,,4.8,3,,,Y,경사로,,,,,,보통,제한없음,,정기점검,2017-09-22,거제시청,2020-02-19,5370000,경상남도 거제시
계림제1육교,구도,대로3-8,대로3-8,광주광역시 동구 중앙로 359(계림동),35.163729,126.919445,37,4.7,,4.5,3,1.1,2,N,N,,,,, ,양호,제한없음,도장,정기점검,2020-02-20,광주광역시 동구청,2020-02-20,3590000,광주광역시 동구
단계육교,시도,대로1-2,북원로,강원도 원주시 북원로 2384,37.35769372,127.9375741,25.1,4.7,,4.5,4,1,,N,없음,0,없음,0,,N,보통,제한없음,19.12 강재도장보수 43㎡,정기점검,2020-02-19,강원도 원주시청,2020-02-29,4190000,강원도 원주시
kT&G앞 육교,시도,대로1-2,북원로,강원도 원주시 소초면 장양리 722-3,37.40700167,127.9568051,30.7,4.8,,4.6,4,1,,Y,경사로,2,없음,0,,N,보통,제한없음,,정기점검,2020-02-19,강원도 원주시청,2020-02-29,4190000,강원도 원주시
장양육교,시도,대로1-2,북원로,강원도 원주시 소초면 장양리 806,37.41079621,127.9594464,24.7,5.1,,4.9,3,1,,Y,경사로,2,없음,0,,N,보통,제한없음,19.12 강재도장보수 20㎡,정기점검,2020-02-19,강원도 원주시청,2020-02-29,4190000,강원도 원주시
혁신도시 육교,시도,대로1-802,혁신로,강원도 원주시 반곡동 1914-7,37.32482759,127.9910403,88,5.7,,5.5,5,1,,Y,엘리베이터,1,없음,0,,N,양호,제한없음,,정기점검,2020-02-19,강원도 원주시청,2020-02-29,4190000,강원도 원주시
사우육교1,시도,구48번국도,김포대로,경기도 김포시 사우동 949,37.621081,126.717038,50,,,4.8,3.8,1,,N,해당없음,,,,2000-12-01,N,보통,제한없음,,정기점검,2020-02-20,김포시도로관리과,2020-02-27,4090000,경기도 김포시
사우육교2,시도,구48번국도,김포대로,경기도 김포시 사우동 930-1,37.619587,126.719212,50,,,4.8,3.8,1,,N,해당없음,,,,2000-12-01,N,보통,제한없음,,정기점검,2020-02-20,김포시도로관리과,2020-02-27,4090000,경기도 김포시
삼정자육교,일반국도,25호선,혜원로,경상남도 창원시 성산구 창원대로1137번길 18,35.1958100,128.7108000,255,12.5,,5.8,19.5,1.2,24,N,없음,,,,,N,보통,제한없음,,정밀점검,2017-08-09,경상남도 창원시 성산구청,2019-09-24,5670000,경상남도 창원시
외리육교,지방도,1020호선,창원대로,경상남도 창원시 성산구 창원대로 1124,32.5312900,123.7747400,45,5.06,,4.5,3,1.2,,N,없음,,,,,N,보통,제한없음,,정밀점검,2015-01-28,경상남도 창원시 성산구청,2019-09-24,5670000,경상남도 창원시
회원육교,시도,대로1-13,무학로,경상남도 창원시 마산회원구 무학로 662,35.2226760,128.5688590,36.8,5,,4.7,2.6,,,N,없음,,,,,N,보통,제한없음,,정기점검,2017-11-21,경상남도 창원시 마산회원구청,2019-09-24,5670000,경상남도 창원시
마여중앞육교,시도,대로1-13,무학로,경상남도 창원시 마산회원구 무학로 587,35.2213160,128.5610390,30,5.5,,5,2.6,,,N,없음,,,,,N,보통,제한없음,,정기점검,2017-11-21,경상남도 창원시 마산회원구청,2019-09-24,5670000,경상남도 창원시
한전앞육교,시도,광로3-1,3.15대로,경상남도 창원시 마산회원구 3.15대로 966,35.2513590,128.6006300,29,5.5,,5,3,,,N,없음,,,,,N,보통,제한없음,,정기점검,2017-11-21,경상남도 창원시 마산회원구청,2019-09-24,5670000,경상남도 창원시
봉래초등학교 앞 육교,시도,광로3-7,대영로,부산광역시 중구 대영로241-1,35.1123457,129.0372171,35.5,4,,4.2,1,,,Y,E/V,1,,,1988-11-30,Y,양호,제한없음,2017.11. 보수공사2018.06. 탄성포장재 보수,정기점검,2019-03-11,건설과,2019-11-22,3250000,부산광역시 중구
연안여객부두 앞 육교,시도,대로1-11,대교로,부산광역시 중구 중앙대로42번길 8,35.1011811,129.0374156,50,4.5,,4.5,3.3,,,Y,E/V,1,,,2001-02-15,Y,양호,제한없음,,정기점검,2019-03-11,건설과,2019-11-22,3250000,부산광역시 중구
성환육교,일반국도,1호,천안대로,충청남도 천안시 서북구 성환읍 성월리 96-3,37.4846884,127.0816943,28,4,,4,4,1,,N,무,,,,1993-01-01, ,양호,제한없음,,정기점검,2017-09-22,서북구청 건설과,2019-02-18,4490000,충청남도 천안시
쌍용인도육교,기타,대로1-2호,서부대로,충청남도 천안시 서북구 서부대로 319-12,37.4142689,127.0742428,146,2,,2,6,1,,N,무,,,,2000-01-01, ,양호,제한없음,,정기점검,2017-09-08,서북구청 건설과,2019-02-18,4490000,충청남도 천안시
동서인도육교,기타,대로1-6호,동서대로,충청남도 천안시 서북구 천안대로 947-21,36.8258965229,127.0916418,315,6,,4,4,1,,N,무,,,,2008-01-01, ,양호,제한없음,,정기점검,2017-09-08,서북구청 건설과,2019-02-18,4490000,충청남도 천안시
청운교,기타,광로3-3호,번영로,충청남도 천안시 서북구 번영로 208,37.4314788,127.0708249,45,4,,4,5,1,116,Y,엘리베이터,2,,,2016-01-01, ,양호,제한없음,,정기점검,2017-09-08,서북구청 건설과,2019-02-18,4490000,충청남도 천안시
선샘교,기타,대로1-탕4호,불당22대로,충청남도 천안시 서북구 불당동 1877,37.4256126,127.0616059,60,5,,4,5,1,189,N,무,,,,2016-01-01, ,양호,제한없음,,정기점검,2017-09-08,서북구청 건설과,2019-02-18,4490000,충청남도 천안시
구성육교,일반국도,1,국도1호,충청남도 천안시 동남구 구성동 258-3,37.4132376,127.0959693,28,4,,4,4,1,8,N,무,,,,1992-01-01, ,양호,제한없음,도색,정기점검,2017-09-11,천안시 동남구,2019-02-18,4490000,충청남도 천안시
유량육교,일반국도,1,국도1호,충청남도 천안시 동남구 원성동 613,37.4216639,127.0947382,28,4,,4,4,1,8,N,무,,,,1992-01-01, ,양호,제한없음,도색,정기점검,2017-09-11,천안시 동남구,2019-02-18,4490000,충청남도 천안시
태조산육교,일반국도,1,국도1호,충청남도 천안시 동남구 신부동 56-31,37.4254052,127.1006221,28,4,,4,4,1,8,N,무,,,,1992-01-01, ,양호,제한없음,"난간보수, 도색",정기점검,2017-09-11,천안시 동남구,2019-02-18,4490000,충청남도 천안시
구성삼거리육교,일반국도,1,국도1호,충청남도 천안시 동남구 구성동 490,37.4143464,127.0941728,32,4,,4,4,1,6,N,승강기,2,,,2008-01-01, ,양호,제한없음,도색,정기점검,2017-09-11,천안시 동남구,2019-02-18,4490000,충청남도 천안시
천안삼거리육교,일반국도,1,국도1호,충청남도 천안시 동남구 삼룡동 257-17,37.4113395,127.1003013,54,4,,4,4,1,0,N,무,,,,2009-01-01, ,양호,제한없음,"도색, 데크보수",정기점검,2017-09-11,천안시 동남구,2019-02-18,4490000,충청남도 천안시
일봉육교,기타,대로 1-3,대로 1-3,충청남도 천안시 동남구 다가동 494,37.415009,127.0822442,42,4,,4,4,1,5,N,무,,,,1997-01-01, ,양호,제한없음,도색,정기점검,2017-09-11,천안시 동남구,2019-02-18,4490000,충청남도 천안시
한려육교,시도,대로 1-2,쌍봉로,전라남도 여수시 둔덕동 655,34.767155,127.689867,33.5,4.5,,4.5,2,1.5,2,Y,엘리베이터,1,엘리베이터,2,1997-01-01,N,양호,제한없음,,정기점검,2018-11-26,여수시,2019-03-18,4810000,전라남도 여수시
진남육교,시도,대로 3-4,만성로,전라남도 여수시 만성로 93-1,34.770919,127.705953,22,4.5,,4.5,3.3,1.5,2,N,없음,,,,1998-01-01,N,양호,제한없음,,정기점검,2018-11-26,여수시,2019-03-18,4810000,전라남도 여수시
신월육교,시도,대로 2-1,신월로,전라남도 여수시 신월로 609,34.7271942,127.712714,26,4.5,,4.5,3.3,1.5,2,N,없음,,,,1998-01-01,N,양호,제한없음,,정기점검,2018-11-26,여수시,2019-03-18,4810000,전라남도 여수시
신기육교,시도,대로 1-5,쌍봉로,전라남도 여수시 쌍봉로 213,34.764134,127.6791478,35,4.2,,4.2,3,1.5,2,N,없음,,,,1992-01-01,N,양호,제한없음,,정기점검,2018-11-26,여수시,2019-03-18,4810000,전라남도 여수시
신기2육교,시도,대로 1-5,쌍봉로,전라남도 여수시 쌍봉로 182,34.764634,127.675545,35,4.5,,4.5,3,1.5,2,N,없음,,,,1996-01-01,N,양호,제한없음,,정기점검,2018-11-26,여수시,2019-03-18,4810000,전라남도 여수시
가곡육교,시도,광로 3-1,시청로,전라남도 여수시 시청로 85,34.769319,127.662862,39,4.5,,4.5,3,1.5,2,N,없음,,,,1992-01-01,N,양호,제한없음,,정기점검,2018-11-26,여수시,2019-03-18,4810000,전라남도 여수시
여천육교,시도,대로 1-3,좌수영로,전라남도 여수시 주동1길 3,34.788039,127.657343,16,4.5,,4.5,3,1.5,,N,없음,,,,1989-01-01,N,양호,제한없음,,정기점검,2018-11-26,여수시,2019-03-18,4810000,전라남도 여수시
소호육교,시도,대로 3-23,소호로,전라남도 여수시 소호동 155-9,34.746841,127.654601,30,4.5,,4.5,3,1.5,2,N,없음,,,,1995-01-01,N,양호,제한없음,,정기점검,2018-11-26,여수시,2019-03-18,4810000,전라남도 여수시
도원육교,시도,대로 2-7,도원로,전라남도 여수시 도원로 175,34.760941,127.650694,26.7,4.5,,4.5,3,1.5,2,N,없음,,,,1999-01-01,N,양호,제한없음,,정기점검,2018-11-26,여수시,2019-03-18,4810000,전라남도 여수시
무선육교,시도,대로 1-5,무선로,전라남도 여수시 무선로 71,34.767431,127.655851,33.8,4.5,,4.5,3,1.5,2,N,없음,,,,1999-01-01,N,양호,제한없음,,정기점검,2018-11-26,여수시,2019-03-18,4810000,전라남도 여수시
충민육교,시도,중로 1-5,충민로,전라남도 여수시 연등동 607-1,34.757349,127.726236,21.5,5,,5,3,1.5,2,Y,엘리베이터+점자블럭,2,엘리베이터,2,2012-01-01,N,양호,제한없음,,정기점검,2018-11-26,여수시,2019-03-18,4810000,전라남도 여수시
공단육교,일반국도,1호,천안대로,충청남도 천안시 서북구 두정동 98-11,37.435554,127.0918396,28,4,,4,4,1,,N,무,,,,1993-01-01, ,양호,제한없음,,정기점검,2017-09-08,서북구청 건설과,2019-02-18,4490000,충청남도 천안시
부성육교,일반국도,1호,천안대로,충청남도 천안시 서북구 부대1길 13-1,37.4440589,127.0918378,28,4,,4,4,1,,N,무,,,,1993-01-01, ,양호,제한없음,,정기점검,2017-09-08,서북구청 건설과,2019-02-18,4490000,충청남도 천안시
공대육교,일반국도,1호,천안대로,충청남도 천안시 서북구 신당동 247-3,37.4459882,127.0931723,28,4,,4,4,1,,N,무,,,,1993-01-01, ,양호,제한없음,,정기점검,2017-09-08,서북구청 건설과,2019-02-18,4490000,충청남도 천안시
미사대로 보도육교,시도,176호선,시도 176호,경기도 하남시 미사대로 596,37.331582,127.124784,46,,,4.7,,,,Y,엘리베이터+경사로,,,,,Y,양호,제한없음,,정기점검,2019-05-20,경기도 하남시청,2019-05-30,4040000,경기도 하남시
충무육교,시도,대로 2-1,중앙로,전라남도 여수시 중앙로 28,34.7400599,127.7307629,22.5,4.3,,4.3,2.9,1.5,2,N,없음,,,,1989-01-01,N,양호,제한없음,,정기점검,2018-11-26,여수시,2019-03-18,4810000,전라남도 여수시
서교육교,시도,대로 1-1,좌수영로,전라남도 여수시 좌수영로 8-1,34.741105,127.727852,27.2,4.2,,4.2,3,1.5,2,N,없음,,,,1989-01-01,N,양호,제한없음,,정기점검,2018-11-26,여수시,2019-03-18,4810000,전라남도 여수시
미평육교,시도,대로 1-1,좌수영로,전라남도 여수시 미평로 3,34.7637515,127.706472,23.7,4.2,,4.2,3.2,1.5,2,N,없음,,,,1991-01-01,N,양호,제한없음,,정기점검,2018-11-26,여수시,2019-03-18,4810000,전라남도 여수시
덕충육교,시도,중로 1-5,충민로,전라남도 여수시 충민로 167,34.7538475,127.735749,17.6,4.4,,4.4,3.1,1.5,2,N,없음,,,,1994-01-01,N,양호,제한없음,,정기점검,2018-11-26,여수시,2019-03-18,4810000,전라남도 여수시
둔덕육교,시도,대로 1-2,쌍봉로,전라남도 여수시 쌍봉로 370,34.768549,127.694911,27.2,4.4,,4.4,3.1,1.5,2,Y,엘리베이터,1,엘리베이터,2,1994-01-01,N,양호,제한없음,,정기점검,2018-11-26,여수시,2019-03-18,4810000,전라남도 여수시
광무육교,시도,대로 1-1,좌수영로,전라남도 여수시 좌수영로 179,34.755227,127.724666,27.2,4.7,,4.7,3.1,1.5,2,N,없음,,,,1995-01-01,N,양호,제한없음,,정기점검,2018-11-26,여수시,2019-03-18,4810000,전라남도 여수시
한재육교,시도,대로 3-5,한재로,전라남도 여수시 광무동 521-6,34.743892,127.721830,22.1,4.5,,4.5,3.3,1.5,2,N,없음,,,,1996-01-01,N,양호,제한없음,,정기점검,2018-11-26,여수시,2019-03-18,4810000,전라남도 여수시
여서육교,시도,대로 3-5,여서로,전라남도 여수시 여서로 190,34.7478981,127.702564,23,4.5,,4.5,3.3,1.5,2,N,없음,,,,1996-01-01,N,양호,제한없음,,정기점검,2018-11-26,여수시,2019-03-18,4810000,전라남도 여수시
충무육교,기타,대로 1-3호,충무로,충청남도 천안시 서북구 쌍용대로 14,37.4153937,127.756333,42,4,,4,4,1,,N,무,,,,1997-01-01, ,양호,제한없음,,정기점검,2017-09-08,서북구청 건설과,2019-02-18,4490000,충청남도 천안시
대봉육교,기타,무,무,충청남도 천안시 서북구 와촌3길 20,37.4214689,127.853987,38,6,,4,3,1,,N,무,,,,1971-01-01, ,보통,제한없음,,정기점검,2017-09-08,서북구청 건설과,2019-02-18,4490000,충청남도 천안시
불당원형육교,기타,광로3-2호,불당대로,충청남도 천안시 서북구 불당동 1446,37.422195,127.630748,206,6,,4,4,1,110,Y,엘리베이터,4,,,2010-01-01, ,양호,제한없음,,정기점검,2017-09-08,서북구청 건설과,2019-02-18,4490000,충청남도 천안시
성정육교,기타,무,무,충청남도 천안시 서북구 와촌동 17,37.4246105,127.0906563,71,6,,4,6,1,,N,무,,,,1983-01-01, ,양호,제한없음,,정기점검,2017-09-08,서북구청 건설과,2019-02-18,4490000,충청남도 천안시
영성육교,기타,광로2-2호,삼성대로,충청남도 천안시 서북구 두정동 1802,37.4416576,127.0845349,64,4,,4,4,1,42,N,무,,,,2006-01-01, ,양호,제한없음,,정기점검,2017-09-08,서북구청 건설과,2019-02-18,4490000,충청남도 천안시
역말육교,일반국도,1호,천안대로,충청남도 천안시 서북구 두정동 512,37.4331734,127.0919063,28,4,,4,4,1,,N,무,,,,1993-01-01, ,양호,제한없음,,정기점검,2017-09-25,서북구청 건설과,2019-02-18,4490000,충청남도 천안시
신우초교 앞,시도,103,호암로,서울특별시 관악구 호암로 498,37.462163,126.931853,24,,,4.5,4,,,N,없음,,,,1992-07-27,N,보통,제한없음,,정기점검,2018-02-21,서울특별시 관악구청,2019-06-03,3200000,서울특별시 관악구
도림천보도육교,시도,43,신사로,서울특별시 관악구 신사로70,37.485834,126.910447,88,,,4.5,4,,,N,없음,,,,1994-07-20,N,보통,제한없음,육교 도색,정기점검,2018-02-27,서울특별시 관악구청,2019-06-03,3200000,서울특별시 관악구
신림동보라매공원,시도,43,신사로,서울특별시 관악구 신사로130,37.488722,126.916239,72,,,4.5,4,,,Y,경사로,2,,,1998-02-28,N,보통,제한없음,육교 도색,정기점검,2018-02-27,서울특별시 관악구청,2019-06-03,3200000,서울특별시 관악구
봉현초교앞,시도,22,관악로,서울특별시 관악구 관악로 304,37.491013,126.956287,43,,,4.5,6,,,Y,경사로,2,,,2003-01-28,N,양호,제한없음,육교 도색,정기점검,2018-02-27,서울특별시 관악구청,2019-06-03,3200000,서울특별시 관악구
구암초교앞,시도,4225,양녕로,서울특별시 관악구 은천로93,37.488823,126.946203,28,,,4.5,4.5,,,Y,경사로,1,,,2005-06-30,N,양호,제한없음,,정기점검,2018-02-22,서울특별시 관악구청,2019-06-03,3200000,서울특별시 관악구
관악산~까치산생태통로,시도,22,관악로,서울특별시 관악구 남현동 산55-5,37.475339,126.970997,80,,,4.5,15,,,N,없음,,,,2006-12-27,N,양호,제한없음,,정기점검,2018-02-22,서울특별시 관악구청,2019-06-03,3200000,서울특별시 관악구
석남육교,시도,29호,-,충청남도 서산시 서해로 3415,36.769906,126.458417,24,6.2,225,4.5,26,,,Y,"휠체어리프트, 경사로",6,캐노피,1,2005-05-16, ,양호,제한없음,,정기점검,2018-03-01,서산시청,2018-10-01,4530000,충청남도 서산시
풍산보도육교(1),기타,덕풍북로,덕풍북로,경기도 하남시 덕풍북로 10,37.331809,127.121481,82.2,,,4.5,,,,Y,엘리베이터+경사로,,,,,Y,양호,제한없음,,정기점검,2019-05-20,경기도 하남시청,2019-05-30,4040000,경기도 하남시
풍산보도육교(2),기타,덕풍로,덕풍북로,경기도 하남시 덕풍북로 10,37.339684,127.121744,64.9,,,4.5,,,,Y,엘리베이터+경사로,,,,,Y,양호,제한없음,,정기점검,2019-05-20,경기도 하남시청,2019-05-30,4040000,경기도 하남시
풍산보도육교(3),기타,덕풍서로,덕풍서로,경기도 하남시 덕풍서로 70,37.331231,127.122828,63.9,,,4.5,,,,Y,엘리베이터+경사로,,,,,Y,양호,제한없음,,정기점검,2019-05-20,경기도 하남시청,2019-05-30,4040000,경기도 하남시
풍산보도육교(4),기타,덕풍동로,덕풍동로,경기도 하남시 덕풍동로 12,37.335439,127.124374,61,,,4.5,,,,Y,엘리베이터+경사로,,,,,Y,양호,제한없음,,정기점검,2019-05-20,경기도 하남시청,2019-05-30,4040000,경기도 하남시
풍산보도육교(5),기타,덕풍로,덕풍남로,경기도 하남시 덕풍남로 11,37.325942,127.124568,64.9,,,4.5,,,,Y,엘리베이터+경사로,,,,,Y,양호,제한없음,,정기점검,2019-05-20,경기도 하남시청,2019-05-30,4040000,경기도 하남시
풍산보도육교(6),기타,덕풍남로,덕풍남로,경기도 하남시 덕풍남로 11,37.325304,127.123981,53.7,,,4.5,,,,Y,엘리베이터+경사로,,,,,Y,양호,제한없음,,정기점검,2019-05-20,경기도 하남시청,2019-05-30,4040000,경기도 하남시
아이테코 보도육교,시도,183호선,시도 183호,경기도 하남시 조정대로 150,37.331357,127.114689,39,,,4.5,,,,Y,엘리베이터,,,,,Y,양호,제한없음,,정기점검,2019-05-20,경기도 하남시청,2019-05-30,4040000,경기도 하남시
수청동 육교,일반국도,시도6호,시도,경기도 오산시 내삼미로 9,37.163458,127.068344,23,2.3,,2.3,2.3,1.2,,Y,경사로,,,,1999-01-01,N,양호,제한없음,,정기점검,2019-12-28,경기도오산시,2020-03-01,4000000,경기도 오산시
운암 육교,일반국도,시도2호선,시도,경기도 오산시 운천로 12,37.142879,127.074783,30,4,,4,4,1.2,,Y,경사로,,,,2001-01-01,N,양호,제한없음,,정기점검,2019-12-28,경기도오산시,2020-03-01,4000000,경기도 오산시
성호중고 육교,일반국도,동부우회도로,지방도,경기도 오산시 동부대로 429-3,37.140295,127.078279,31.5,3,,3,3,1.2,,Y,경사로,,,,2005-01-01,N,양호,제한없음,,정기점검,2019-12-28,경기도오산시,2020-03-01,4000000,경기도 오산시
우림@앞 육교,일반국도,국도1호선,국도,경기도 오산시 경기대로 74,37.131121,127.072106,33,3,,3,3,1.2,,Y,경사로,,,,2005-01-01,N,양호,제한없음,,정기점검,2019-12-28,경기도오산시,2020-03-01,4000000,경기도 오산시
가수초등학교앞 육교,일반국도,중로2류-39,시도,경기도 오산시 가수로 50,37.147519,127.048101,17,4,,4,4,1.2,,Y,경사로,,,,2006-01-01,N,양호,제한없음,,정기점검,2019-12-28,경기도오산시,2020-03-01,4000000,경기도 오산시
오산천 횡단 보도육교,기타,청학동503-69(오산중고앞),국도,경기도 오산시 청학로 48,37.152578,127.064301,140,5,,5,5,1.2,,N,없음,,,,2007-01-01,N,양호,제한없음,,정기점검,2019-12-28,경기도오산시,2020-03-01,4000000,경기도 오산시
고현초등학교앞 보도육교,일반국도,시도632호,시도,경기도 오산시 남부대로 459,37.132856,127.085193,26.76,3.5,,3.5,3.5,1.2,,Y,경사로,,,,2009-01-01,N,양호,제한없음,,정기점검,2019-12-28,경기도오산시,2020-03-01,4000000,경기도 오산시
세교파출소앞 보도육교,일반국도,대1-7호선,국도,경기도 오산시 세마역로 5,37.180454,127.043843,56.1,4,,4,4,1.2,,Y,승강기점자블럭,2,,,2011-01-01,N,양호,제한없음,승강기보수,정기점검,2019-12-28,경기도오산시,2020-03-01,4000000,경기도 오산시
금암초앞 보도육교(8단지 옆),일반국도,대1-7호선,국도,경기도 오산시 수청로 204-20,37.178713,127.045499,39,4,,4,4,1.2,,Y,승강기점자블럭,2,,,2010-01-01,N,양호,제한없음,승강기보수,정기점검,2019-12-28,경기도오산시,2020-03-01,4000000,경기도 오산시
수청초등학교앞 보도육교,일반국도,대2-10호선,국도,경기도 오산시 오산대역로 123,37.170033,127.056151,37,4,,4,4,1.2,,Y,승강기점자블럭,2,,,2010-01-01,N,양호,제한없음,승강기보수,정기점검,2019-12-28,경기도오산시,2020-03-01,4000000,경기도 오산시
16단지앞(국도1) 보도육교,일반국도,대1-1호선,국도,경기도 오산시 내삼미로 109,37.172774,127.062813,39,4,,4,4,1.2,,Y,승강기점자블럭,2,,,2011-01-01,N,양호,제한없음,,정기점검,2019-12-28,경기도오산시,2020-03-01,4000000,경기도 오산시
물결어린이공원육교,시도,대로 2-1183,소하로,경기도 광명시 소하로,37.4508984,126.8836704,32,5,,4,4,,,Y,승강기,,,,,Y,양호,제한없음,,정기점검,2018-06-30,경기도 광명시청,2019-09-09,3900000,경기도 광명시
생태육교(보건소),시도,대로 3-0,오리로,경기도 광명시 오리로,37.4539603,126.8815112,33,7.68,,4,15,,,N,없음,,,,,Y,양호,제한없음,,정기점검,2018-06-30,경기도 광명시청,2019-09-09,3900000,경기도 광명시
한치고개육교,시도,대로 1-1,범안로,경기도 광명시 범안로,37.4458772,126.859214,40,,,4,4,,,N,없음,,,,,Y,양호,제한없음,,정기점검,2018-06-30,경기도 광명시청,2019-09-09,3900000,경기도 광명시
생태육교(밤일마을),시도,대로 3-16,금하로,경기도 광명시 금하로,37.453215,126.856851,28.5,13.5,,4,35,,,N,없음,,,,,Y,양호,제한없음,,정기점검,2018-06-30,경기도 광명시청,2019-09-09,3900000,경기도 광명시
양지보도육교,시도,대로 2-0,서독로,경기도 광명시 서독로,37.4142839,126.8834102,,4.5,,4,,,,Y,승강기,,,,,Y,양호,제한없음,,정기점검,2018-06-30,경기도 광명시청,2019-09-09,3900000,경기도 광명시
봉암육교,일반국도,26,전진로,전라북도 진안군 부귀면 봉암리 445-14,35.848884,127.339655,28,5.5,,4.7,30,1.2,,N,없음,0,0,0,2000-12-24,N,보통,제한없음,,정기점검,2018-10-22,전주국토관리사무소,2019-09-16,4730000,전라북도 진안군
은천초교 앞,시도,4303,은천로,서울특별시 관악구 은천로 66,37.486239,126.942719,18,,,4.5,4,,,N,없음,,,,1997-07-24,N,보통,제한없음,육교 도색,정기점검,2018-02-22,서울특별시 관악구청,2019-06-03,3200000,서울특별시 관악구
사당초교 앞,시도,22,관악로,서울특별시 관악구 남부순환로 2030,37.476187,126.974149,33,,,4.5,4,,,N,없음,,,,1984-01-21,N,보통,제한없음,육교 도색,정기점검,2018-02-22,서울특별시 관악구청,2019-06-03,3200000,서울특별시 관악구
가야초등학교 육교,시도,없음,없음,전라남도 광양시 광영동 250,34.966291,127.713629,25,,,5,2,,,N,없음,,,,1997-01-01,,보통,제한없음,,정기점검,2018-12-31,전라남도 광양시,2020-03-24,4840000,전라남도 광양시
성호육교,시도,없음,없음,전라남도 광양시 중동 1671,34.932664,127.691808,26,,,4.8,3,,,Y,경사로,,,,2015-01-01,,보통,제한없음,,정기점검,2018-12-31,전라남도 광양시,2020-03-24,4840000,전라남도 광양시
팔봉육교,지방도,720번,무왕로,전라북도 익산시 무왕로 1432,35.575991,127.004878,31,4.7,,4.5,3,1.5,0,Y,"엘리베이터,",2,"엘리베이터,캐노피",2,2010-11-15,Y,양호,제한없음,캐노피 설치,정기점검,2017-10-17,익산시청,2020-03-04,4680000,전라북도 익산시
대도보도육교,구도,-,선릉로,서울특별시 강남구 선릉로 209,37.4928283,127.0548340,26,,,4.5,4,,,Y,엘리베이터+점자블록,,,,2005-06-01,N,양호,제한없음,,정기점검,2019-06-24,서울특별시 강남구청,2020-03-03,3220000,서울특별시 강남구
양전보도육교,구도,-,개포로,서울특별시 강남구 개포로 513,37.4898430,127.0697870,17,,,4.5,3.6,,,Y,점자블록,,,,1989-10-01,N,양호,제한없음,,정기점검,2019-06-24,서울특별시 강남구청,2020-03-03,3220000,서울특별시 강남구
구룡보도육교,구도,-,개포로,서울특별시 강남구 개포로 263,37.4803750,127.0524420,18,,,4.8,4,,,Y,점자블록,,,,1991-06-01,N,보통,제한없음,,정기점검,2019-06-24,서울특별시 강남구청,2020-03-03,3220000,서울특별시 강남구
구름다리보도육교,시도,-,양재대로,서울특별시 강남구 양재대로 340,37.4716355,127.0522720,41,,,4.5,4.3,,,Y,엘리베이터+점자블록,,,,1996-07-01,N,보통,제한없음,,정기점검,2019-06-24,서울특별시 강남구청,2020-03-03,3220000,서울특별시 강남구
개포대우보도육교,시도,-,언주로,서울특별시 강남구 언주로 21,37.4803360,127.0523870,33,,,4.5,4,,,Y,점자블록,,,,1998-04-01,N,보통,제한없음,,정기점검,2019-06-24,서울특별시 강남구청,2020-03-03,3220000,서울특별시 강남구
일원보도육교,시도,-,양재대로,서울특별시 강남구 일원로9길 6,37.4889040,127.0820970,45,,,4.5,3,,,Y,점자블록,,,,1989-12-01,N,보통,제한없음,,정기점검,2019-06-24,서울특별시 강남구청,2020-03-03,3220000,서울특별시 강남구
양재보도육교,시도,-,양재대로,서울특별시 강남구 양재대로 781,37.4920630,127.0959820,77,,,6.5,4,,,Y,엘리베이터+점자블록,,,,2003-12-01,N,보통,제한없음,,정기점검,2019-06-24,서울특별시 강남구청,2020-03-03,3220000,서울특별시 강남구
양재천보도육교,구도,-,양재천로,서울특별시 강남구 언주로30길 56,37.4870760,127.0539160,39,,,4.6,2.8,,,Y,엘리베이터+점자블록,,,,2004-04-01,N,보통,제한없음,,정기점검,2019-06-24,서울특별시 강남구청,2020-03-03,3220000,서울특별시 강남구
말죽거리보도육교,시도,-,남부순환로,서울특별시 강남구 남부순환로 2633,37.4850490,127.0375380,35,,,4.5,4,,,Y,엘리베이터+점자블록,,,,1994-12-01,N,보통,제한없음,,정기점검,2019-06-24,서울특별시 강남구청,2020-03-03,3220000,서울특별시 강남구
일원탄천보도육교,시도,-,남부순환로,서울특별시 강남구 일원동 474-1,37.4966970,127.0883750,88,,,5.5,5.8,,,Y,점자블록,,,,2010-09-08,N,보통,제한없음,,정기점검,2019-06-24,서울특별시 강남구청,2020-03-03,3220000,서울특별시 강남구
중앙육교,구도,대로3-1,대로3-1,광주광역시 동구 제봉로 167(궁동),35.15092829,126.9186393708,17,4.6,,4.4,3.4,1.1,2,N,N,,,,, ,보통,제한없음,단면보수,정기점검,2020-02-20,광주광역시 동구청,2020-02-20,3590000,광주광역시 동구
계림육교,구도,대로3-8,대로3-8,광주광역시 동구 중앙로 323(계림동),35.1606081613,126.9201487867,18,4.7,,4.4,3.4,1.1,2,N,N,,,,, ,보통,제한없음,"계단단면보수, 하부단면보수 및 도장, 난간교체",정기점검,2020-02-20,광주광역시 동구청,2020-02-20,3590000,광주광역시 동구
남초교육교,구도,대로1-4,대로1-4,광주광역시 동구 남문로622번길 1(소태동),35.126779,126.931509,28.8,4.8,,4.4,3,1.1,2,N,N,,,,, ,보통,제한없음,"미끄럼방지설치, 도장",정기점검,2020-02-20,광주광역시 동구청,2020-02-20,3590000,광주광역시 동구
도내기시장앞육교,구도,대로3-3,대로3-3,광주광역시 동구 필문대로 293(서석동),35.145289,126.926855,27.4,4.6,,4.4,3.5,1.1,2,N,N,,,,, ,양호,제한없음,,정기점검,2020-02-20,광주광역시 동구청,2020-02-20,3590000,광주광역시 동구
하당우미@육교,시도,1번,호남선,전라남도 목포시 백년대로 10,34.798522,126.390636,42.1,5.2,,5,4,,,N,없음,,,,, ,양호,제한없음,,정기점검,2018-07-07,목포시청,2020-01-28,4800000,전라남도 목포시
철산보도육교,시도,대로 2-18,남부순환로,경기도 광명시 남부순환로,37.4925004,126.8681189,142,4.5,,4,4,,,N,없음,,,,,Y,양호,제한없음,,정기점검,2018-06-30,경기도 광명시청,2019-09-09,3900000,경기도 광명시
사성보도육교,시도,대로 2-11,안양천로,경기도 광명시 안양천로,37.4947562,126.8687734,236,9,,4,6,,,N,없음,,,,,Y,양호,제한없음,,정기점검,2018-06-30,경기도 광명시청,2019-09-09,3900000,경기도 광명시
목감천보도교,시도,소로 3-13,목감로,경기도 광명시 목감로,37.4908639,126.8631783,63,6,,4,4,,,N,없음,,,,,Y,양호,제한없음,,정기점검,2018-06-30,경기도 광명시청,2019-09-09,3900000,경기도 광명시
햇무리육교,시도,대로 2-11,철산로,경기도 광명시 철산로,37.4780893,126.8738347,105.1,5.7,,4,3.6,,,Y,승강기,,,,,Y,양호,제한없음,,정기점검,2018-06-30,경기도 광명시청,2019-09-09,3900000,경기도 광명시
미리내육교,시도,대로 2-11,철산로,경기도 광명시 철산로,37.4877183,126.8701521,56,6.2,,4,3.6,,,Y,승강기,,,,,Y,양호,제한없음,,정기점검,2018-06-30,경기도 광명시청,2019-09-09,3900000,경기도 광명시
소하초교육교,시도,대로 2-1182,금하로,경기도 광명시 금하로,37.4499295,126.8875059,38,5,,4,4.6,,,Y,승강기,,,,,Y,양호,제한없음,,정기점검,2018-06-30,경기도 광명시청,2019-09-09,3900000,경기도 광명시
동호보도육교,지방도,3-15번,발한로,강원도 동해시 발한동 593-1,37.5411829,129.1018472,28,5,,4.5,4,,,N,없음,,,,1994-07-01,N,양호,제한없음,,정기점검,2019-12-14,강원도 동해시,2020-03-16,4210000,강원도 동해시
천곡보도육교,일반국도,7번,동해대로,강원도 동해시 평릉동 163-1,37.527552,129.105132,32,5,,4.5,4,,,N,없음,,,,1992-07-01,N,양호,제한없음,,정기점검,2019-12-14,강원도 동해시,2020-03-16,4210000,강원도 동해시
부흥초교 앞 육교,시도,시도,달안로,경기도 안양시 동안구 달안로 28,37.3936897,126.947137,94,5.5,,5.5,4,1.1,,Y,경사로,1,,,1997-05-09,N,양호,제한없음,,정기점검,2019-04-12,동안구 건설과,2019-09-16,3830000,경기도 안양시
부림동주민센터 앞 육교,시도,시도,달안로,경기도 안양시 동안구 달안로 158,37.3989065,126.959855,85.2,5.5,,5,4,1.1,,Y,경사로,1,,,1993-10-16,N,양호,제한없음,,정기점검,2019-04-12,동안구 건설과,2019-09-16,3830000,경기도 안양시
평안동주민센터 앞 육교,시도,시도,관평로,경기도 안양시 동안구 관평로138번길 52,37.3901524,126.9651204,84.6,5.5,,5,4,1.1,,Y,경사로,1,,,1992-10-07,N,양호,제한없음,,정기점검,2019-04-12,동안구 건설과,2019-09-16,3830000,경기도 안양시
범계초교 앞 육교,시도,시도,평촌대로,경기도 안양시 동안구 평촌대로179번길 40,37.3873402,126.9553378,84.6,5.5,,5,4,1.1,,Y,경사로,1,,,1992-10-29,N,양호,제한없음,,정기점검,2019-04-12,동안구 건설과,2019-09-16,3830000,경기도 안양시
귀인초교 앞 육교,시도,시도,귀인로,경기도 안양시 동안구 귀인로 247,37.3874853,126.9661254,90.4,5.5,,5,4,1.1,,Y,경사로,1,,,1992-04-09,N,양호,제한없음,,정기점검,2019-04-12,동안구 건설과,2019-09-16,3830000,경기도 안양시
범계중학교 앞 육교,시도,시도,귀인로,경기도 안양시 동안구 귀인로 155,37.3845541,126.9563174,85.6,5.5,,5.5,4,1.1,,Y,경사로,1,,,1992-04-18,N,양호,제한없음,,정기점검,2019-04-12,동안구 건설과,2019-09-16,3830000,경기도 안양시
명학역 앞 육교,시도,시도,만안로,경기도 안양시 만안구 만안로 19,37.3851652,126.9346205,24.2,6,,6,5,1.1,,Y,승강기,1,,,2012-01-13,Y,양호,제한없음,,정기점검,2019-06-30,만안구 건설과,2019-09-16,3830000,경기도 안양시
진흥 육교,시도,시도,만안로,경기도 안양시 만안구 만안로 202,37.399255,126.9245448,29.1,6,,6,6,1.1,,Y,승강기,1,,,2017-07-12,Y,양호,제한없음,,정기점검,2019-04-19,만안구 건설과,2019-09-16,3830000,경기도 안양시
박달삼거리 육교,시도,시도,박달로,경기도 안양시 만안구 박달로 480,37.4022931,126.9057586,29,5,,4.3,4,1.1,,Y,승강기,1,,,1993-04-23,N,양호,제한없음,,정기점검,2019-04-19,만안구 건설과,2019-09-16,3830000,경기도 안양시
신정기지,구도,0,목동남로,서울특별시 양천구 목동남로 85,37.511661,126.868151,185,6,,4.5,4,1.2,12,N,점자블록,1,없음,0,1993-09-01,N,미흡,제한없음,일상유지보수,정기점검,2019-08-30,서울특별시 양천구청,2019-11-06,3140000,서울특별시 양천구
오금,구도,0,목동남로,서울특별시 양천구 목동로3길 41,37.510918,126.867962,23,6,,4.7,4,1.2,6,N,점자블록,1,없음,0,1998-06-01,N,양호,제한없음,일상유지보수,정기점검,2019-08-30,서울특별시 양천구청,2019-11-06,3140000,서울특별시 양천구
신월IC,시도,42,남부순환로,서울특별시 양천구 남부순환로,37.525423,126.834818,85,6,,4.2,3.5,1.2,4,N,점자블록,1,없음,0,2011-11-04,N,양호,제한없음,일상유지보수,정기점검,2019-08-30,서울특별시 양천구청,2019-11-06,3140000,서울특별시 양천구
금옥여고앞,시도,4215,신정로,서울특별시 양천구 신정로 213,37.509669,126.844476,33,6,,4.7,5.5,1.2,6,Y,점자블록,1,엘리베이터,1,2001-12-01,N,양호,제한없음,일상유지보수,정기점검,2019-08-30,서울특별시 양천구청,2019-11-06,3140000,서울특별시 양천구
목동운동장앞,시도,5105,안양천로,서울특별시 양천구 목동동로 298,37.528551,126.880142,40,6,,4.5,4.6,1.3,3,Y,"점자블록, 경사로",2,없음,0,2006-06-01,N,양호,제한없음,일상유지보수,정기점검,2019-08-30,서울특별시 양천구청,2019-11-06,3140000,서울특별시 양천구
신정교앞,시도,5105,안양천로,서울특별시 양천구 신목로 5,37.517383,126.8764687270,80,6,,4.5,3.4,1.3,4,Y,"점자블록, 경사로",2,없음,0,2008-06-01,N,양호,제한없음,일상유지보수,정기점검,2019-08-30,서울특별시 양천구청,2019-11-06,3140000,서울특별시 양천구
이대목동병원,시도,5105,안양천로,서울특별시 양천구 안양천로 1071,37.537594,126.886432,40,6,,4.5,4.6,1.3,3,Y,"점자블록, 경사로",2,없음,0,2009-02-01,N,양호,제한없음,일상유지보수,정기점검,2019-08-30,서울특별시 양천구청,2019-11-06,3140000,서울특별시 양천구
신은,시도,4214,신월로,서울특별시 양천구 신정이펜2로 55,37.514507,126.831186,228,6,,4.5,4.3,1.3,4,Y,"점자블록, 경사로",2,없음,0,2002-06-26,N,보통,제한없음,일상유지보수,정기점검,2019-08-30,서울특별시 양천구청,2019-11-06,3140000,서울특별시 양천구
칼산,구도,0,목동남로,서울특별시 양천구 목동남로4길 2,37.508612,126.864206,26,6,,4.5,4,1.2,6,N,점자블록,1,없음,0,1994-01-01,N,보통,제한없음,일상유지보수,정기점검,2019-08-30,서울특별시 양천구청,2019-11-06,3140000,서울특별시 양천구
양원,시도,4207,화곡로,서울특별시 양천구 화곡로 16,37.539186,126.823479,27,6,,4.5,4,1.2,8,N,점자블록,1,없음,0,1994-07-01,N,보통,제한없음,일상유지보수,정기점검,2019-08-30,서울특별시 양천구청,2019-11-06,3140000,서울특별시 양천구
검산육교,기타,대로3-2,도작로,전라북도 김제시 도작로 111,35.805464,126.898834,30,,,4.8,3.3,,,N,없음,,,,, ,보통,제한없음,,정기점검,2017-05-10,전라북도 김제시청,2019-09-30,4710000,전라북도 김제시
샘마을,시도,시도,관평로,경기도 안양시 동안구 흥안대로 313,37.3827085,126.9691775,67,5,,4.5,3.5,1.1,,Y,경사로,1,,,1999-03-22,N,양호,제한없음,,정기점검,2019-04-12,동안구 건설과,2019-09-16,3830000,경기도 안양시
중앙공원관리사무소 앞 육교,시도,시도,관평로,경기도 안양시 동안구 관평로138번길 13,37.3906535,126.9632949,89.8,5.5,,5,4,1.1,,Y,경사로,1,,,1992-10-10,N,양호,제한없음,,정기점검,2019-04-12,동안구 건설과,2019-09-16,3830000,경기도 안양시
희성초교 앞 육교,시도,시도,학의로,경기도 안양시 동안구 학의로 90,37.3987117,126.9495243,91,5,,4.5,4,1.1,,Y,경사로,1,,,1998-03-16,N,양호,제한없음,,정기점검,2019-04-12,동안구 건설과,2019-09-16,3830000,경기도 안양시
부안초교 앞 육교,시도,시도,달안로,경기도 안양시 동안구 달안로 117,37.3978633,126.9554415,94,5,,4.5,4,1.1,,Y,경사로,1,,,1998-03-22,N,양호,제한없음,,정기점검,2019-04-12,동안구 건설과,2019-09-16,3830000,경기도 안양시
달안동주민센터 앞 육교,시도,시도,달안로,경기도 안양시 동안구 달안로 71,37.396314,126.9507758,84.6,5.5,,5,4,1.1,,Y,경사로,1,,,1993-10-14,N,양호,제한없음,,정기점검,2019-04-12,동안구 건설과,2019-09-16,3830000,경기도 안양시
게내육교,구도,1,고덕천,서울특별시 강동구 상이로 152,37.559288,127.171977,52,,,10,4.5,1,2,N,없음,,,,2011-12-30,N,양호,제한없음,,정기점검,2019-12-06,서울특별시 강동구,2019-12-06,3240000,서울특별시 강동구
강일육교,특별시도,1,아리수로,서울특별시 강동구 아리수로93길 40,37.565504,127.176338,160,,,7,4.5,1,2,N,없음,,,,2010-04-20,N,양호,제한없음,,정기점검,2019-12-06,서울특별시 강동구,2019-12-06,3240000,서울특별시 강동구
숲길교,특별시도,1,구천면로,서울특별시 강동구 구천면로 557,37.549783,127.158935,27,,,4.5,4.5,1,2,N,없음,,,,2015-12-24,N,양호,제한없음,,정기점검,2019-12-06,서울특별시 강동구,2019-12-06,3240000,서울특별시 강동구
도림초교앞 보도육교,일반국도,43번,아차산로,경기도 구리시 아차산로,37.593438,127.131224,38.5,5.1,5,5,4,1.2,7,N,미설치,0,,,1996-01-01,N,양호,제한없음,"2019.06 캐노피설치, 유리난간 설치 등 완료",정기점검,2019-03-27,경기도 구리시청,2019-12-03,3980000,경기도 구리시
도매시장앞 보도육교,시도,43번,동구릉로,경기도 구리시 동구릉로 136번길,37.610882,127.139437,37.9,5.3,5,4.5,4,1.2,9,N,미설치,0,,,1998-01-01,N,양호,제한없음,12월 중순 철거 예정,정기점검,2019-03-27,경기도 구리시청,2019-12-03,3980000,경기도 구리시
왕숙천둔치연결 보도육교,시도,43번,왕숙천로,경기도 구리시 왕숙천로,37.601906,127.148921,26.5,5.3,5,5,4,1.2,5,Y,경사로,1,,,2008-01-01,N,양호,제한없음,,정기점검,2019-03-27,경기도 구리시청,2019-12-03,3980000,경기도 구리시
민락초등학교 앞 육교,시도,2003,광남로,부산광역시 수영구 광남로 271,35.160525,129.128439,56,,,4.9,,,,Y,승강기 3기,,,,,N,보통,제한없음,,정밀점검,2017-10-24,수영구청,2019-11-18,3380000,부산광역시 수영구
수영강변 e편한세상 앞 육교,시도,79,좌수영로,부산광역시 수영구 좌수영로 190,35.181114,129.116592,30.6,,,4.8,,,,Y,승강기 2기,,,,,N,보통,제한없음,,정밀점검,2017-10-24,수영구청,2019-11-18,3380000,부산광역시 수영구
민락교 접속육교,시도,2401,광안해변로,부산광역시 수영구 광안해변로 418,35.159653,129.131094,5.3,,,8.4,,,,N,-,,,,,N,보통,제한없음,,정밀점검,2017-10-24,수영구청,2019-11-18,3380000,부산광역시 수영구
남천동 자유한국당사 앞 육교,시도,24,황령대로,부산광역시 수영구 황령대로 493,35.138288,129.107898,31.2,,,4.5,,,,Y,승강기 2기,,,,,N,보통,제한없음,,정밀점검,2017-10-24,수영구청,2019-11-18,3380000,부산광역시 수영구
능골,시도,49,국회대로,서울특별시 양천구 지양로16길 15,37.525091,126.832696,81,6,,4.5,4,1.2,4,N,점자블록,1,없음,0,1992-07-01,N,양호,제한없음,일상유지보수,정기점검,2019-08-30,서울특별시 양천구청,2019-11-06,3140000,서울특별시 양천구
당모래,시도,49,국회대로,서울특별시 양천구 국회대로 90,37.527292,126.844742,53,6,,4.5,4,1.2,10,N,점자블록,1,없음,0,1992-07-01,N,보통,제한없음,일상유지보수,정기점검,2019-08-30,서울특별시 양천구청,2019-11-06,3140000,서울특별시 양천구
은빛,시도,49,국회대로,서울특별시 양천구 국회대로 170,37.528087,126.853616,53,6,,4.5,4,1.2,10,N,점자블록,1,없음,0,1992-07-01,N,보통,제한없음,일상유지보수,정기점검,2019-08-30,서울특별시 양천구청,2019-11-06,3140000,서울특별시 양천구
소망,시도,49,국회대로,서울특별시 양천구 국회대로 210,37.528975,126.858466,59,6,,4.5,5,1.2,10,N,점자블록,1,없음,0,1992-07-01,N,보통,제한없음,일상유지보수,정기점검,2019-08-30,서울특별시 양천구청,2019-11-06,3140000,서울특별시 양천구
잣절,시도,42,남부순환로,서울특별시 양천구 남부순환로 699,37.506698,126.844273,40,6,,4.3,3,1.2,6,N,점자블록,1,없음,0,1977-12-01,N,양호,제한없음,일상유지보수,정기점검,2019-08-30,서울특별시 양천구청,2019-11-06,3140000,서울특별시 양천구
남서울한양(아)앞 보도육교,구도,-,벚꽃로,서울특별시 금천구 시흥대로 165,37.447902,126.900726,49.6,,,0,4.5,,,Y,엘리베이터,,,,2011-07-31, ,보통,제한없음,,정기점검,2019-08-27,서울특별시 금천구청,2020-02-20,3170000,서울특별시 금천구
가산한내 보도육교,시도,-,서부간선도로,서울특별시 금천구 가산디지털2로 127-143,37.478621,126.876975,39.5,,,4.5,4.7,,,Y,점자블럭,,,,2007-12-24, ,보통,제한없음,,정기점검,2019-08-27,서울특별시 금천구청,2020-02-20,3170000,서울특별시 금천구
독산한내 보도육교,구도,-,서해안고속도로,서울특별시 금천구 벚꽃로 73,37.462907,126.890424,46,,,4.5,5.7,,,N,경사로,,,,2008-01-11, ,보통,제한없음,,정기점검,2019-08-27,서울특별시 금천구청,2020-02-20,3170000,서울특별시 금천구
장천리보도육교,시도,2-41,참외전로,인천광역시 동구 참외전로245,37.281383,126.382075,25.53,7.25,3.367,4.8,2,1.15,0,N,미끄럼방지,,,,2003-12-26,N,양호,제한없음,2015.11. 논슬립(미끄럼방지) 설치,정기점검,2015-11-26,인천광역시 동구청,2020-03-04,3500000,인천광역시 동구
중앙육교,시도,0번,인북로,전라북도 익산시 인북로 86,35.561163,126.570828,20,4.5,,4.3,3,1.5,0,N,없음,0,없음,0,1997-05-15,N,양호,제한없음,계단 및 도색 보수,정기점검,2017-10-17,익산시청,2020-03-04,4680000,전라북도 익산시
북중육교,시도,23번,익산대로,전라북도 익산시 익산대로 411,35.574547,126.571251,21,4.8,,4.5,4,1.5,0,N,없음,0,없음,0,1999-09-04,N,양호,제한없음,계단 및 도색 보수,정기점검,2017-10-17,익산시청,2020-03-04,4680000,전라북도 익산시
신동육교,시도,25번,무왕로,전라북도 익산시 무왕로12길 9-23,35.573758,126.575872,30,4.8,,4.5,4,1.5,0,N,없음,0,없음,0,2000-04-21,N,양호,제한없음,계단 및 도색 보수,정기점검,2017-10-17,익산시청,2020-03-04,4680000,전라북도 익산시
영등육교,시도,25번,무왕로,전라북도 익산시 무왕로 1100,35.573067,126.584423,30,4.8,,4.5,3,1.5,0,N,없음,0,없음,0,2001-10-13,N,양호,제한없음,계단 및 도색 보수,정기점검,2017-10-17,익산시청,2020-03-04,4680000,전라북도 익산시
어양육교,시도,25번,무왕로,전라북도 익산시 무왕로 1152,35.573211,126.590255,30,4.8,,4.5,3,1.5,0,N,없음,0,없음,0,2001-10-13,N,양호,제한없음,계단 및 도색 보수,정기점검,2017-10-17,익산시청,2020-03-04,4680000,전라북도 익산시
서안양우체국사거리 육교,지방도,국지도57호선,관악대로,경기도 안양시 만안구 안양로 238,37.3945594,126.925384,30,4.3,,4.3,5,1.1,,Y,승강기,1,,,1994-04-10,N,양호,제한없음,,정기점검,2019-04-19,만안구 건설과,2019-09-16,3830000,경기도 안양시
샘모루초교 앞 육교,지방도,국지도57호선,관악대로,경기도 안양시 동안구 관악대로 133,37.3994214,126.9386655,40.4,5,,4.7,4,1.1,,Y,승강기,1,,,2003-12-05,N,양호,제한없음,,정기점검,2019-04-12,동안구 건설과,2019-09-16,3830000,경기도 안양시
중앙공원 앞 육교,시도,시도,평촌대로,경기도 안양시 동안구 평촌대로 164,37.3867809,126.9587683,118.6,5,,5,4,1.1,,Y,경사로,1,,,1992-10-19,N,양호,제한없음,,정기점검,2019-04-12,동안구 건설과,2019-09-16,3830000,경기도 안양시
롯데 향촌(아) 앞 육교,시도,시도,평촌대로,경기도 안양시 동안구 귀인로 193,37.386427,126.958397,107,5.5,,5.5,4,1.1,,Y,경사로,1,,,1997-05-07,N,양호,제한없음,,정기점검,2019-04-12,동안구 건설과,2019-09-16,3830000,경기도 안양시
신촌동주민센터 앞 육교,시도,시도,동안로,경기도 안양시 동안구 동안로 28,37.3818035,126.9563052,84,5.5,,5.5,4,1.1,,Y,경사로,1,,,1997-05-16,N,양호,제한없음,,정기점검,2019-04-12,동안구 건설과,2019-09-16,3830000,경기도 안양시
신암육교,특별시도,1,고덕로,서울특별시 강동구 고덕로66,37.554725,127.132644,20.8,,,4.7,3,1,2,N,없음,,,,1990-06-12,N,양호,제한없음,,정기점검,2019-12-06,서울특별시 강동구,2019-12-06,3240000,서울특별시 강동구
고덕육교,구도,1,동남로82길,서울특별시 강동구 고덕로 285,37.560702,127.159826,28,,,6.7,3,1,2,N,없음,,,,1994-12-13,N,양호,제한없음,,정기점검,2019-12-06,서울특별시 강동구,2019-12-06,3240000,서울특별시 강동구
한영육교,특별시도,1,동남로,서울특별시 강동구 상암로67길 19,37.547186,127.156047,26.3,,,5.2,4.3,1,2,N,없음,,,,1996-07-15,N,양호,제한없음,,정기점검,2019-12-06,서울특별시 강동구,2019-12-06,3240000,서울특별시 강동구
천동육교,구도,1,성안로,서울특별시 강동구 성안로 199,37.540488,127.136884,19.4,,,5,4,1,2,N,없음,,,,2001-02-17,N,양호,제한없음,,정기점검,2019-12-06,서울특별시 강동구,2019-12-06,3240000,서울특별시 강동구
암사육교,특별시도,1,고덕로,서울특별시 강동구 고덕로 25,37.554741,127.127605,22.5,,,4.5,4,1,2,N,없음,,,,2001-09-07,N,양호,제한없음,,정기점검,2019-12-06,서울특별시 강동구,2019-12-06,3240000,서울특별시 강동구
리엔육교,구도,1,고덕천,서울특별시 강동구 상일로 152,37.560666,127.172235,54,,,10,4.5,1,2,N,없음,,,,2011-12-30,N,양호,제한없음,,정기점검,2019-12-06,서울특별시 강동구,2019-12-06,3240000,서울특별시 강동구
향림 육교,일반국도,국도1호선,경수대로,경기도 안양시 만안구 예술공원로70번길 57-3,37.4128836,126.9196567,47,5,,4.5,3,1.1,,N,없음,0,,,1995-05-16,N,양호,제한없음,,정기점검,2019-06-30,만안구 건설과,2019-09-16,3830000,경기도 안양시
석수역 앞 육교,일반국도,국도1호선,경수대로,경기도 안양시 만안구 경수대로 1430,37.4339014,126.903779,59,5.5,,5,3.7,1.1,,Y,승강기,1,,,2009-06-03,N,양호,제한없음,,정기점검,2019-06-30,만안구 건설과,2019-09-16,3830000,경기도 안양시
호계3동 삼신아파트 앞 육교,일반국도,국도47호선,흥안대로,경기도 안양시 동안구 흥안대로 46,37.3674678,126.9509763,29,5,,4.8,4,1.1,,N,없음,0,,,1993-03-18,N,양호,제한없음,,정기점검,2019-04-12,동안구 건설과,2019-09-16,3830000,경기도 안양시
호계3동 국민은행 옆 육교,일반국도,국도47호선,흥안대로,경기도 안양시 동안구 흥안대로 96,37.3694752,126.9557058,25.4,5.5,,5,4,1.1,,Y,승강기,1,,,1994-10-11,N,양호,제한없음,,정기점검,2019-04-12,동안구 건설과,2019-09-16,3830000,경기도 안양시
안양남초교 앞 육교,일반국도,국도47호선,흥안대로,경기도 안양시 동안구 흥안대로249번길 18,37.3787294,126.9687839,45.3,5.5,,5,4,1.1,,Y,승강기,1,,,1993-09-16,N,양호,제한없음,,정기점검,2019-04-12,동안구 건설과,2019-09-16,3830000,경기도 안양시
평촌지하차도 위 육교,일반국도,국도47호선,흥안대로,경기도 안양시 동안구 흥안대로 372,37.3876567,126.9731514,44.6,5.5,,5,4,1.1,,N,없음,0,,,1994-10-28,N,양호,제한없음,,정기점검,2019-04-12,동안구 건설과,2019-09-16,3830000,경기도 안양시
논현택지2보도육교,구도,대1-13,대1-13,인천광역시 남동구 은봉로 166번길 27,37.404822,126.710913,92,,,4.5,4,,,Y,엘레베이터,3,,,2009-01-01,,양호,제한없음,-,정기점검,2019-12-30,남동구,2020-03-20,3530000,인천광역시 남동구
논현(소래초),구도,대3-76,대3-76,인천광역시 남동구 청능대로 718번길 31,37.405662,126.735899,150,,,4.5,2.8,,,Y,경사로,2,,,2007-01-01,,양호,제한없음,-,정기점검,2019-12-30,남동구,2020-03-20,3530000,인천광역시 남동구
논현2택지1보도육교,구도,대3-23,대3-23,인천광역시 남동구 은봉로 288,37.405472,126.7229410823,90,,,4.5,4,,,Y,경사로,3,,,2006-01-01,,양호,제한없음,-,정기점검,2019-12-30,남동구,2020-03-20,3530000,인천광역시 남동구
신월초교,구도,광 3-7,광 3-7,인천광역시 인주대로 781,37.4490832,126.7239958,29.5,,,5.2,4,,,Y,경사로,2,,,2003-01-01,,양호,제한없음,-,정기점검,2019-12-30,남동구,2020-03-20,3530000,인천광역시 남동구
장수사거리,구도,대1-14,대1-14,인천광역시 남동구 수인로 3718,37.449551,126.748905,25.5,,,4.8,4,,,Y,경사로,2,,,2001-01-01,,양호,제한없음,-,정기점검,2019-12-30,남동구,2020-03-20,3530000,인천광역시 남동구
운연동 육교,구도,광3-7,광3-7,인천광역시 남동구 수인로 3548,37.443399,126.765336,30.5,,,4.8,4,,,Y,경사로,2,,,2000-01-01,,양호,제한없음,-,정기점검,2019-12-30,남동구,2020-03-20,3530000,인천광역시 남동구
논현1택지,구도,대1-13,대1-13,인천광역시 남동구 함박뫼로 439,37.410553,126.713031,39.8,,,5,6,,,Y,경사로,2,,,1998-01-01,,양호,제한없음,-,정기점검,2019-12-30,남동구,2020-03-20,3530000,인천광역시 남동구
도림,구도,광3-6,광3-6,인천광역시 남동구 도리미로 1번길,37.421407,126.729529,43.3,,,5,4,,,Y,경사로,2,,,1998-01-01,,양호,제한없음,-,정기점검,2019-12-30,남동구,2020-03-20,3530000,인천광역시 남동구
남동관문교,구도,광3-7,광3-7,인천광역시 남동구 소래로 652,37.448191,126.734011,118,,,4.7,4,,,Y,경사로,4,,,1997-01-01,,양호,제한없음,-,정기점검,2019-12-30,남동구,2020-03-20,3530000,인천광역시 남동구
남동정수장,구도,대1-14,대1-14,인천광역시 남동구 담방로 105,37.451488,126.738801,43.6,,,4.8,4,,,Y,경사로,2,,,1996-01-01,,양호,제한없음,-,정기점검,2019-12-30,남동구,2020-03-20,3530000,인천광역시 남동구
가곡초교입구보도육교,시도,5103,강서로,서울특별시 강서구 발산동655-10,37.556773,126.836942,32,5,0,5,4,1.2,2,Y,없음,0,엘리베이터,2,2005-08-01,N,양호,제한없음,바닥포장및도장,정기점검,2019-09-09,서울특별시 강서구청 도로과,2019-12-18,3150000,서울특별시 강서구
스카이파크보도육교,시도,42,개화동로,서울특별시 강서구 방화동620-260,37.563795,126.806728,54,4.7,0,4.7,4.5,1.2,2,Y,없음,0,엘리베이터,1,2011-11-01,N,양호,제한없음,없음,정기점검,2019-09-09,서울특별시 강서구청 도로과,2019-12-18,3150000,서울특별시 강서구
증미역연결보도육교,구도,없음,양천로,서울특별시 강서구 가양동449-27,37.558829,126.861266,60,3,0,3,4,1.2,2,N,없음,0,없음,0,2010-12-07,N,양호,제한없음,없음,정기점검,2019-09-09,서울특별시 강서구청 도로과,2019-12-18,3150000,서울특별시 강서구
권곡육교,기타,해당없음,문화로,충청남도 아산시 문화로,36.790298,127.102733,,,,4.5,,,,Y,경사로,,,,, ,보통,제한없음,,정밀점검,2017-08-09,아산시청,2019-09-23,4520000,충청남도 아산시
천도육교,일반국도,45호,문화로,충청남도 아산시 문화로,36.7877258,126.990613,,,,4.8,,,,Y,경사로,,,,, ,보통,제한없음,,정밀점검,2017-08-09,아산시청,2019-09-23,4520000,충청남도 아산시
권곡초교육교,기타,해당없음,문화로,충청남도 아산시 문화로,36.7898461,127.0134712,,,,4.5,,,,Y,경사로,,,,, ,양호,제한없음,,정밀점검,2017-08-09,아산시청,2019-09-23,4520000,충청남도 아산시
장항선육교,기타,해당없음,철도횡단,충청남도 아산시 풍기동 212-2,36.7776938,127.017152,,,,7.5,,,,Y,엘리베이터,,,,, ,양호,제한없음,,정밀점검,2017-08-09,아산시청,2019-09-23,4520000,충청남도 아산시
풍기초육교,기타,해당없음,남부로,충청남도 아산시 어의정로 184,36.7728113,127.016162,,,,4.5,,,,N,없음,,,,, ,보통,제한없음,,정밀점검,2017-08-09,아산시청,2019-09-23,4520000,충청남도 아산시
공수육교,기타,해당없음,철도횡단,충청남도 아산시 배방읍 공수리 67-30,36.7741926,127.0609687,,,,7.5,,,,N,없음,,,,, ,보통,사용금지,,정밀점검,2017-08-09,아산시청,2019-09-23,4520000,충청남도 아산시
남동육교,기타,624호,온천대로,충청남도 아산시 배방읍 온천대로,36.7804883,127.0512396,,,,4.8,,,,N,없음,,,,, ,보통,철거,,정밀점검,2017-08-09,아산시청,2019-09-23,4520000,충청남도 아산시
호계3동 대림(아) 앞 육교,일반국도,국도1호선,경수대로,경기도 안양시 동안구 경수대로 446,37.3632713,126.960806,45.6,5.5,,5,4,1.1,,Y,승강기,1,,,2003-12-27,N,양호,제한없음,,정기점검,2019-04-12,동안구 건설과,2019-09-16,3830000,경기도 안양시
호계3동주민센터 앞 육교,일반국도,국도1호선,경수대로,경기도 안양시 동안구 경수대로 504,37.3677842,126.9588632,45.6,5,,4.3,4,1.1,,Y,승강기,1,,,2004-02-08,N,양호,제한없음,,정기점검,2019-04-12,동안구 건설과,2019-09-16,3830000,경기도 안양시
범계동 신동아(아) 앞 육교,시도,국도1호선,경수대로,경기도 안양시 동안구 경수대로 721,37.3858624,126.9504651,45,5,,4.5,4,1.1,,Y,승강기,1,,,1993-06-19,N,양호,제한없음,,정기점검,2019-04-12,동안구 건설과,2019-09-16,3830000,경기도 안양시
문화예술회관육교,시도,1번,호남선,전라남도 목포시 남농로 95,34.7926162,126.4178012,70,4.5,,4.5,4.6,,,Y,경사로,,,,, ,양호,제한없음,,정기점검,2018-07-07,목포시청,2020-01-28,4800000,전라남도 목포시
옥암자전거육교,시도,2번,호남선,전라남도 목포시 남악로 22-14,34.8022406,126.4398618,257,6.2,,5,4,,,Y,경사로,,,,, ,양호,제한없음,,정기점검,2018-07-07,목포시청,2020-01-28,4800000,전라남도 목포시
안남초등학교 앞 육교,특별시도,0,연안로,부산광역시 동래구 연안로 45-2,35.191916,129.107461,33,5,,5,3,1.2,,N,없음,,,,2005-01-01, ,양호,제한없음,,정기점검,2019-06-19,동래구청,2020-01-16,3300000,부산광역시 동래구
신화타워 앞 육교,특별시도,0,중앙대로,부산광역시 동래구 중앙대로 1425-1,35.214116,129.080172,71,5,,5,3,1.2,,N,없음,,,,1999-01-01, ,양호,제한없음,,정기점검,2019-06-19,동래구청,2020-01-16,3300000,부산광역시 동래구
금강공원 공영주차장 앞 육교,특별시도,0,우장춘로,부산광역시 동래구 우장춘로192,35.223165,129.077341,24,5,,5,3,1.2,,N,없음,,,,1998-01-01, ,양호,제한없음,,정기점검,2019-06-19,동래구청,2020-01-16,3300000,부산광역시 동래구
롯데캐슬앞 광역시도,특별시도,0,충렬대로,부산광역시 동래구 충렬대로 372,35.197559,129.099082,33,5,,5,3,1.2,,N,없음,,,,1993-01-01, ,양호,제한없음,,정기점검,2019-06-19,동래구청,2020-01-16,3300000,부산광역시 동래구
온천장역 앞 육교,특별시도,0,중앙대로,부산광역시 동래구 중앙대로 1523,35.221174,129.086511,50,5,,5,5,1.2,,N,없음,,,,2000-01-01, ,양호,제한없음,,정기점검,2019-06-19,동래구청,2020-01-16,3300000,부산광역시 동래구
명륜역 육교,특별시도,0,중앙대로,부산광역시 동래구 중앙대로 1523,35.212111,129.078911,82,5,,5,3,1.2,,N,없음,,,,2009-02-12, ,양호,제한없음,,정기점검,2019-06-19,동래구청,2020-01-16,3300000,부산광역시 동래구
수명산보도육교,시도,4204,수명로,서울특별시 강서구 내발산동751-2,37.553206,126.825094,160,4.5,0,4.5,4,1.2,4,N,없음,0,없음,0,2008-06-01,N,양호,제한없음,없음,정기점검,2019-09-09,서울특별시 강서구청 도로과,2019-12-18,3150000,서울특별시 강서구
장평육교,시도,대로1-1호선,도시계획도로 대로1-1호선,경상남도 거제시 장평로1길 64,34.888713,128.609231,40,,,4.5,3,,,Y,엘리베이터,,,,,,양호,제한없음,,정기점검,2017-09-22,거제시청,2020-02-19,5370000,경상남도 거제시
이화아파트,구도,대1-12,대1-12,인천광역시 남동구 염전로 440,37.468139,126.690147,28.4,,,4.8,4,,,N,-,0,,,1993-01-01,,양호,제한없음,-,정기점검,2019-12-30,남동구,2020-03-20,3530000,인천광역시 남동구
주원철도,구도,간석동 757,간석동 757,인천광역시 남동구 주안로259번길28,37.464795,126.698904,30,,,4.5,5,,,N,-,0,,,1987-01-01,,양호,제한없음,-,정기점검,2019-12-30,남동구,2020-03-20,3530000,인천광역시 남동구
칠성아파트앞 보도육교,시도,없음,남부순환로,서울특별시 구로구 구일로2길 60,37.4897571681,126.8770793476,66,4.3,,4.3,3.5,1.5,13,Y,엘리베이터,3,,,1988-11-15, ,보통,제한없음,,정기점검,2020-01-16,서욱특별시 구로구청,2020-02-20,3160000,서울특별시 구로구
오정초교앞 보도육교,시도,없음,경인로,서울특별시 구로구 경인로2길 10,37.4901657550,126.8264393073,29,4.5,,4.5,4,1.5,9,N,없음,,,,1993-10-30, ,보통,제한없음,,정기점검,2020-01-13,서욱특별시 구로구청,2020-02-20,3160000,서울특별시 구로구
가리봉동주민센타앞 보도육교,시도,없음,남부순환로,서울특별시 구로구 남부순환로105길 160,37.4830694557,126.8856198553,40,4.8,,4.8,2.8,1.5,7,N,없음,,,,1977-09-30, ,보통,제한없음,,정기점검,2020-01-13,서욱특별시 구로구청,2020-02-20,3160000,서울특별시 구로구
남부아파트앞 보도육교,시도,없음,남부순환로,서울특별시 구로구 남부순환로 1303,37.4788007450,126.8956432664,35,4.5,,4.5,2.65,1.5,7,N,없음,,,,1977-09-30, ,보통,제한없음,,정기점검,2020-01-13,서욱특별시 구로구청,2020-02-20,3160000,서울특별시 구로구
고척교앞 보도육교,시도,없음,경인로,서울특별시 구로구 경인로 482,37.4982868980,126.8727318749,38,4.5,,4.5,4,1.5,11,Y,엘리베이터,2,,,2004-02-28, ,보통,제한없음,,정기점검,2020-01-16,서욱특별시 구로구청,2020-02-20,3160000,서울특별시 구로구
이씨의다리 보도육교,시도,없음,서부간선도로,서울특별시 구로구 구로중앙로42길 85,37.5103042609,126.8776202350,41,4.5,,4.5,4,1.5,6,N,없음,,,,2004-12-01, ,보통,제한없음,,정기점검,2020-01-16,서욱특별시 구로구청,2020-02-20,3160000,서울특별시 구로구
구일역앞 보도육교,시도,없음,서부간선도로,서울특별시 구로구 구일로 110,37.4950749316,126.8720090767,68,4.5,,4.5,3.7,1.5,4,Y,엘리베이터,1,,,1995-01-01, ,보통,제한없음,,정기점검,2020-01-13,서욱특별시 구로구청,2020-02-20,3160000,서울특별시 구로구
신구로유수지앞 보도육교,시도,없음,서부간선도로,서울특별시 구로구 서부샛길 822,37.4885023884,126.8731238761,44,4.5,,4.5,3.1,1.5,,N,없음,,,,2009-09-19, ,보통,제한없음,,정기점검,2020-01-16,서욱특별시 구로구청,2020-02-20,3160000,서울특별시 구로구
삼향동사무소육교,시도,1번,호남선,전라남도 목포시 영산로 743,34.830438,126.417928,38,4.9,,4.8,3,,,N,없음,,,,, ,양호,제한없음,,정기점검,2018-07-07,목포시청,2020-01-28,4800000,전라남도 목포시
대박산육교,시도,1번,호남선,전라남도 목포시 영산로 762,34.831972,126.418279,38,5.1,,4.8,3,,,N,없음,,,,, ,양호,제한없음,,정기점검,2018-07-07,목포시청,2020-01-28,4800000,전라남도 목포시
용해여상고육교,시도,1번,호남선,전라남도 목포시 영산로 417,34.806641,126.411395,29,4.7,,4.5,2.5,,,N,없음,,,,, ,양호,제한없음,도장공사(''''18년),정기점검,2018-07-07,목포시청,2020-01-28,4800000,전라남도 목포시
목포역철도육교,시도,1번,호남선,전라남도 목포시 영산로 154-1,34.796162,126.388415,181,,,9,2.5,,,N,없음,,,,, ,양호,제한없음,,정기점검,2018-07-07,목포시청,2020-01-28,4800000,전라남도 목포시
석현구검문소육교,시도,2번,호남선,전라남도 목포시 녹색로 1,34.8249725,126.4232524,83,5.2,,4.8,3,,,N,없음,,,,, ,양호,제한없음,"도장공사, 미끄럼 방지(''''18년)",정기점검,2018-07-07,목포시청,2020-01-28,4800000,전라남도 목포시
광산가든육교,시도,1번,호남선,전라남도 목포시 영산로 820,34.8365331,126.4210149,40.7,5.1,,4.8,3,,,N,없음,,,,, ,양호,제한없음,,정기점검,2018-07-07,목포시청,2020-01-28,4800000,전라남도 목포시
용해금호@육교,시도,1번,호남선,전라남도 목포시 삼학로 341,34.801102,126.408576,32,5.6,,5.1,3,,,N,없음,,,,, ,양호,제한없음,,정기점검,2018-07-07,목포시청,2020-01-28,4800000,전라남도 목포시
하당롯데마트육교,시도,1번,호남선,전라남도 목포시 통일대로 60,34.799436,126.431265,43,5.1,,4.5,3.5,,,N,없음,,,,, ,양호,제한없음,,정기점검,2018-07-07,목포시청,2020-01-28,4800000,전라남도 목포시
산정동동초등교육교,시도,1번,호남선,전라남도 목포시 산정로 242,34.809346,126.388639,15.6,5.9,,4.2,3,,,N,없음,,,,, ,양호,제한없음,,정기점검,2018-07-07,목포시청,2020-01-28,4800000,전라남도 목포시
금당육교,시도,2번,백강로,전라남도 순천시 백강로 206 (연향동),34.9516895955,127.5225184467,29,,,4.5,,,,N,N,,,,1995-01-01,N,보통,제한없음,,정기점검,2019-12-05,순천시청 도로과,2020-02-12,4820000,전라남도 순천시
풍전육교,시도,2번,지봉로,전라남도 순천시 백연길 123 (조례동),34.9528410654,127.5321817872,28,,,4.5,,,,N,N,,,,1997-01-01,N,보통,제한없음,,정기점검,2019-12-05,순천시청 도로과,2020-02-12,4820000,전라남도 순천시
강변육교,시도,2번,남승룡로,전라남도 순천시 국가정원1호길 162-13 (풍덕동),34.9307483173,127.5116070388,19.9,,,4.4,,,,N,N,,,,1998-01-01,N,양호,제한없음,,정기점검,2019-12-05,순천시청 도로과,2020-02-12,4820000,전라남도 순천시
송촌육교,시도,2번,순광로,전라남도 순천시 순광로 111 (조례동),34.9591198387,127.5318194623,34,,,4.4,,,,N,N,,,,1999-01-01,N,보통,제한없음,,정기점검,2019-12-05,순천시청 도로과,2020-02-12,4820000,전라남도 순천시
연향철도육교,시도,2번,연향로,전라남도 순천시 율산3길 112 (연향동),34.941502,127.5281241,35,,,4.5,,,,Y,경사로,,,,2000-01-01,N,보통,제한없음,,정기점검,2019-12-05,순천시청 도로과,2020-02-12,4820000,전라남도 순천시
조례보도육교,시도,2번,이수로,전라남도 순천시 이수로 281 (조례동),34.9521622,127.5151807,28,,,4.5,,,,N,N,,,,2007-01-01,N,보통,제한없음,,정기점검,2019-12-05,순천시청 도로과,2020-02-12,4820000,전라남도 순천시
경인철도횡단 보도육교,구도,없음,부일로,서울특별시 구로구 부일로15가길 3,37.4934093536,126.8339448073,27,4.5,,4.5,3.3,1.5,7,N,없음,,,,1988-07-30, ,보통,제한없음,,정기점검,2020-01-16,서욱특별시 구로구청,2020-02-20,3160000,서울특별시 구로구
대발령 보도육교,일반국도,2호선,대로,경상남도 창원시 진해구 원포동 산 8-12,35.1200600,128.7165290,42,5,,5,4,1.1,40,N,없음,0,,,,N,보통,제한없음,,정기점검,2018-06-29,경상남도 창원시 진해구청,2019-09-24,5670000,경상남도 창원시
석전사거리육교,시도,대로1-13,무학로,경상남도 창원시 마산회원구 북성로 200,35.2252800,128.5710960,104,5.5,,5,3,,,N,없음,,,,,N,보통,제한없음,,정기점검,2017-11-21,경상남도 창원시 마산회원구청,2019-09-24,5670000,경상남도 창원시
팔용육교,시도,대로2-15,팔용로,경상남도 창원시 마산회원구 팔용로 158,35.2424490,128.5923130,27.5,5.5,,5,3,,,N,없음,,,,,N,보통,제한없음,,정기점검,2017-11-21,경상남도 창원시 마산회원구청,2019-09-24,5670000,경상남도 창원시
양덕초교앞육교,시도,대로2-15,팔용로,경상남도 창원시 마산회원구 팔용로 41-1,35.2334240,128.5870830,27.4,5.5,,5,3,,,N,없음,,,,,N,보통,제한없음,,정기점검,2017-11-21,경상남도 창원시 마산회원구청,2019-09-24,5670000,경상남도 창원시
서광아파트앞육교,시도,광로3-4,봉양로,경상남도 창원시 마산회원구 봉양로 237,35.2162090,128.6122230,35,5.5,,5,2.5,,,N,없음,,,,,N,보통,제한없음,,정기점검,2017-11-21,경상남도 창원시 마산회원구청,2019-09-24,5670000,경상남도 창원시
석전동육교,시도,대로1-9,삼호로,경상남도 창원시 마산회원구 삼호로 277,35.2326450,128.5652260,29,5.5,,5,3,,,N,없음,,,,,N,보통,제한없음,,정기점검,2017-11-21,경상남도 창원시 마산회원구청,2019-09-24,5670000,경상남도 창원시
구암고교앞육교,시도,대로2-15,팔용로,경상남도 창원시 마산회원구 팔용로 220,35.2468540,128.5964870,30.8,5.5,,5,3,,,N,없음,,,,,N,보통,제한없음,,정기점검,2017-11-21,경상남도 창원시 마산회원구청,2019-09-24,5670000,경상남도 창원시
중앙초교앞육교,시도,대로2-15,팔용로,경상남도 창원시 마산회원구 팔용로 280,35.2483490,128.6023330,41.5,5.5,,5,3,,,N,없음,,,,,N,보통,제한없음,,정기점검,2017-11-21,경상남도 창원시 마산회원구청,2019-09-24,5670000,경상남도 창원시
남양파크 육교,시도,없음,없음,전라남도 광양시 중동 1416,34.944304,127.689487,20.5,,,4.3,3,,,N,없음,,,,1995-01-01,,보통,제한없음,,정기점검,2018-12-31,전라남도 광양시,2020-03-24,4840000,전라남도 광양시
방이2 보행자전용교량,특별시도,71번,양재대로,서울특별시 송파구 오금사거리,37.504812,127.123672,70.8,,,4.6,3,,,Y,점자블록+경사로,2,없음,,1996-09-24,Y,양호,제한없음,,정밀점검,2017-09-10,서울특별시 송파구청,2020-03-11,3230000,서울특별시 송파구
두산초교앞 보도육교,시도,-,범안로,서울특별시 금천구 범안로11길 3,37.467552,126.890943,26,,,4.3,4,,,Y,점자블럭,,,,1992-12-20, ,보통,제한없음,,정기점검,2019-08-28,서울특별시 금천구청,2020-02-20,3170000,서울특별시 금천구
한신(아)앞 보도육교,시도,-,한내로,서울특별시 금천구 한내로 62,37.455396,126.888885,70,,,4.5,4,,,Y,엘리베이터,,,,1992-12-20, ,보통,제한없음,,정기점검,2019-08-27,서울특별시 금천구청,2020-02-20,3170000,서울특별시 금천구
금천 보도교,시도,-,범안로,서울특별시 금천구 범안로 1126,37.466615,126.897695,120,,,4.2,2,,,Y,엘리베이터,,,,2000-09-04, ,보통,제한없음,,정기점검,2019-08-27,서울특별시 금천구청,2020-02-20,3170000,서울특별시 금천구
석수역 앞 보도육교,시도,-,시흥대로,서울특별시 금천구 시흥대로 6,37.4343082480,126.903577,59,,,5,3.7,,,Y,엘리베이터,,,,2009-06-30, ,보통,제한없음,,정기점검,2019-08-27,서울특별시 금천구청,2020-02-20,3170000,서울특별시 금천구
해군아파트사거리,일반국도,2호선,대로,경상남도 창원시 진해구 진해대로 950,35.1448070,128.7068030,31,5,,5,3,1,6,N,없음,0,,,,N,보통,제한없음,강재 재도장 등,정밀점검,2018-05-08,경상남도 창원시 진해구청,2019-09-24,5670000,경상남도 창원시
경화육교,일반국도,2호선,대로,경상남도 창원시 진해구 진해대로 602,35.1574540,128.6816120,30,4.5,,4.5,3,1,6,N,없음,0,,,,N,보통,제한없음,,정기점검,2018-06-29,경상남도 창원시 진해구청,2019-09-24,5670000,경상남도 창원시
상공회의소사거리,일반국도,2호선,대로,경상남도 창원시 진해구 진해대로 725,35.1600100,128.6949040,37,5,,4.5,3,1,5,N,없음,0,,,,N,보통,제한없음,,정밀점검,2018-05-08,경상남도 창원시 진해구청,2019-09-24,5670000,경상남도 창원시
상화육교,구도,광로2-15,상화로,대구광역시 달서구 월곡로 112,35.80724121,128.5498176,42.8,6,,4.5,3.5,1.2,,Y,점자블록,1,엘리베이터,1,2013-04-30,N,양호,제한없음,,정기점검,2019-03-07,대구광역시 달서구청,2020-03-19,3470000,대구광역시 달서구
용산지하차도 간이육교,구도,대로1-23,선원로,대구광역시 달서구 선원로 283,35.85899535,128.5237132,36,6,,4.5,1.5,1.2,,N,없음,,,,2007-12-03,N,양호,제한없음,,정기점검,2019-03-07,대구광역시 달서구청,2020-03-19,3470000,대구광역시 달서구
공단육교,지방도,514번,수출대로,경상북도 구미시 수출대로 124,36.110874,128.377718,25,4.7,,4.7,4,1.5,7,N,없음,,없음,,1993-01-01,N,양호,제한없음,,정기점검,2019-12-30,경상북도 구미시,2020-03-09,5080000,경상북도 구미시
온천육교,일반국도,45호,문화로,충청남도 아산시 문화로,36.7903914,126.9992997,,,,4.8,,,,N,없음,,,,, ,양호,제한없음,,정밀점검,2017-08-09,아산시청,2019-09-23,4520000,충청남도 아산시
원평철도 육교,기타,경부선,금오산로,경상북도 구미시 구미중앙로 44,36.129317,128.327554,38,4.7,,4.7,4,1.5,7,N,없음,,캐노피,,1992-01-01,N,보통,제한없음,,정기점검,2019-12-30,경상북도 구미시,2020-03-09,5080000,경상북도 구미시
신평육교,지방도,514번,구미중앙로,경상북도 구미시 신평동 158-2,36.119617,128.358458,52,4.5,,4.5,4,1.5,8,N,없음,,없음,,1992-01-01,N,양호,제한없음,,정기점검,2019-12-30,경상북도 구미시,2020-03-09,5080000,경상북도 구미시
도송육교,기타,00번,송동로,경상북도 구미시 도량동 87,36.147973,128.323514,21,4.85,,4.5,4,1.5,6,N,없음,,없음,,1998-01-01,N,양호,제한없음,,정기점검,2019-12-30,경상북도 구미시,2020-03-09,5080000,경상북도 구미시
인동육교,지방도,514번,인동가산로,경상북도 구미시 인동가산로 7,36.107931,128.417844,35,4.8,,4.8,4,1.5,8,N,없음,,없음,,1997-01-01,N,양호,제한없음,,정기점검,2019-12-30,경상북도 구미시,2020-03-09,5080000,경상북도 구미시
평화육교,일반국도,국4호,김천로,경상북도 김천시 김천로 111,36.123598,128.115993,240,7.5,,7.4,4,3,,Y,난간,,,,1994-09-12,N,보통,제한없음,여,정기점검,2019-06-29,김천시,2020-03-17,5060000,경상북도 김천시
광성초교앞 보도육교,일반국도,서부우회도로,국도,경기도 오산시 수목원로 577-18,37.183341,127.039203,46,4,,4,4,1.2,,Y,경사로,,,,2011-01-01,N,양호,제한없음,,정기점검,2019-12-28,경기도오산시,2020-03-01,4000000,경기도 오산시
세마보도,일반국도,경부선철도,국도,경기도 오산시 세마역로 60,37.184697,127.045565,70,6.8,,6.8,6.8,1.2,,N,없음,,,,2011-01-01,N,양호,제한없음,,정기점검,2019-12-28,경기도오산시,2020-03-01,4000000,경기도 오산시
고인돌 공원 생태육교,일반국도,대1-7호선,국도,경기도 오산시 수목원로 430,37.173731,127.051093,39.9,30,,30,30,1.2,,N,없음,,,,2010-01-01,N,양호,제한없음,,정기점검,2019-12-28,경기도오산시,2020-03-01,4000000,경기도 오산시
6단지앞 생태육교,일반국도,대1-66호선,국도,경기도 오산시 여계산로 21,37.173266,127.045171,25,30,,30,30,1.2,,N,없음,,,,2010-01-01,N,양호,제한없음,,정기점검,2019-12-28,경기도오산시,2020-03-01,4000000,경기도 오산시
8단지앞 생태육교,일반국도,대1-67호선,국도,경기도 오산시 수청로 166,37.178686,127.045504,32,50,,50,50,1.2,,N,없음,,,,2010-01-01,N,양호,제한없음,,정기점검,2019-12-28,경기도오산시,2020-03-01,4000000,경기도 오산시
가장산업서북로 생태육교,일반국도,대3-22,국도,경기도 오산시 가장산업서북로 39-58,37.168276,127.032291,25.8,30,,30,30,1.2,,N,없음,,,,2014-01-01,N,양호,제한없음,,정기점검,2019-12-28,경기도오산시,2020-03-01,4000000,경기도 오산시
삼미육교,일반국도,대-14,시도,경기도 오산시 북삼미로 175,37.192029,127.061532,41,4.8,,4.5,3.5,1.5,,Y,승강기점자블럭,2,,,2019-10-18,Y,양호,제한없음,,정기점검,2019-10-18,경기도오산시,2020-03-01,4000000,경기도 오산시
방이1 보행자전용교량,특별시도,71번,양재대로,서울특별시 송파구 오금사거리,37.504812,127.123672,70.8,,,4.6,3,,,Y,점자블록+경사로,2,없음,,1995-12-30,Y,양호,제한없음,,정밀점검,2017-09-10,서울특별시 송파구청,2020-03-11,3230000,서울특별시 송파구
감삼육교,구도,중로1-3,당산로,대구광역시 달서구 당산로 123,35.8491792856,128.5451436876,17,6,,4.5,3,1.2,,Y,점자블록,1,,,1993-08-05,N,양호,제한없음,,정기점검,2019-03-07,대구광역시 달서구청,2020-03-19,3470000,대구광역시 달서구
두류육교,일반국도,5번,두류공원로,대구광역시 달서구 두류공원로 257,35.85636069,128.5563354,33.5,6,,5,4,1.2,,Y,점자블록,1,,,1996-05-14,N,양호,제한없음,,정기점검,2019-03-07,대구광역시 달서구청,2020-03-19,3470000,대구광역시 달서구
송현육교,구도,대로 1-24,앞산순환로,대구광역시 달서구 앞산순환로 301,35.82816721,128.5601889,38,6,,4.8,4.5,1.2,,Y,점자블록,1,,,1997-07-10,N,양호,제한없음,,정기점검,2019-03-07,대구광역시 달서구청,2020-03-19,3470000,대구광역시 달서구
대곡육교,일반국도,5번,비슬로,대구광역시 달서구 비슬로 2700,35.80842323,128.5108101,32.6,6,,5,3,1.2,,Y,점자블록,1,,,1997-12-06,N,양호,제한없음,,정기점검,2019-03-07,대구광역시 달서구청,2020-03-19,3470000,대구광역시 달서구
용산육교,구도,대로 1-23,평리로,대구광역시 달서구 용산큰못길 30,35.85907574,128.5279876,30,6,,4.8,4,1.2,,N,없음,,,,1998-12-02,N,양호,제한없음,,정기점검,2019-03-07,대구광역시 달서구청,2020-03-19,3470000,대구광역시 달서구
새방육교,구도,대로2-38,새방로,대구광역시 달서구 새방로 77,35.86547628,128.5256827,26.9,6,,5,3,1.2,,Y,점자블록,1,,,2001-12-31,N,양호,제한없음,,정기점검,2019-03-07,대구광역시 달서구청,2020-03-19,3470000,대구광역시 달서구
달비육교,구도,광로2-15,앞산터널로,대구광역시 달서구 상화로 370,35.80775324,128.5521558,47.1,6,,4.5,3.5,1.2,,Y,점자블록,1,엘리베이터,1,2013-04-30,N,양호,제한없음,,정기점검,2019-03-07,대구광역시 달서구청,2020-03-19,3470000,대구광역시 달서구
진해역철도육교,기타,해당없음,해당없음,경상남도 창원시 진해구 여좌로 9-1,35.1535300,128.6617000,73,5,,5,3,1.2,3,N,없음,0,,,,N,불량,제한없음,,정밀점검,2017-11-21,경상남도 창원시 진해구청,2019-09-24,5670000,경상남도 창원시
대야초교보도육교,시도,1-166,중로,경상남도 창원시 진해구 여좌로89번길 4,35.1594630,128.6623000,17.79,4.8,,4.8,3,1.2,1,N,없음,0,,,,N,미흡,제한없음,바닥판 교체 및 장재 재도장 등,정밀점검,2018-05-08,경상남도 창원시 진해구청,2019-09-24,5670000,경상남도 창원시
풍호초등학교사거리,일반국도,2호선,대로,경상남도 창원시 진해구 풍호로 68,35.1387900,128.7090770,32,5,,5,3,1,6,N,없음,0,,,,N,보통,제한없음,,정기점검,2018-06-29,경상남도 창원시 진해구청,2019-09-24,5670000,경상남도 창원시
도림2(보차도)육교,구도,대1-20,대1-20,인천광역시 남동구 논현동 3,37.418038,126.737727,40,,,4.5,5,,,N,-,0,,,2003-01-01,,양호,제한없음,-,정기점검,2019-12-30,남동구,2020-03-20,3530000,인천광역시 남동구
도림1(보차도)육교,구도,대1-20,대1-20,인천광역시 남동구 도림동 75,37.421936,126.736836,40,,,4.5,5,,,N,-,0,,,2003-01-01,,양호,제한없음,-,정기점검,2019-12-30,남동구,2020-03-20,3530000,인천광역시 남동구
논현(보차도)육교,구도,대1-20,대1-20,인천광역시 남동구 은봉로 419번길 103,37.4137988955,126.738395,40,,,4.5,10,,,N,-,0,,,2003-01-01,,양호,제한없음,-,정기점검,2019-12-30,남동구,2020-03-20,3530000,인천광역시 남동구
서창(보차도)육교,구도,광3-16,광3-16,인천광역시 남동구 장아산로 216,37.432397,126.751468,50,,,4.5,10.2,,,N,-,0,,,1994-01-01,,양호,제한없음,-,정기점검,2019-12-30,남동구,2020-03-20,3530000,인천광역시 남동구
승기천 횡단,구도,논현동 471-10,논현동 471-10,인천광역시 남동구 남동서로 205번길 32,37.411072,126.688631,110,,,4.5,3,,,N,-,0,,,2010-01-01,,양호,제한없음,-,정기점검,2019-12-30,남동구,2020-03-20,3530000,인천광역시 남동구
해안도로,구도,중1-295,중1-295,인천광역시 남동구 아암대로 1239,37.3844567212,126.705708,80,,,4.5,3,,,Y,엘레베이터,2,,,2010-01-01,,양호,제한없음,-,정기점검,2019-12-30,남동구,2020-03-20,3530000,인천광역시 남동구
죽동보도육교,특별시도,광로 2-3,한밭대로,대전광역시 유성구 한밭대로 295(장대동),36.366281,127.332646,46,4.5,,4.5,4,,,Y,없음,2,엘리베이터,2,,N,미흡,제한없음,,정기점검,2019-09-10,대전광역시 유성구청,2020-02-25,3670000,대전광역시 유성구
월드컵보도육교,특별시도,광로 2-3,한밭대로,대전광역시 유성구 한밭대로 155(노은동),36.366831,127.321186,68,6.5,,4.5,4,,,Y,없음,2,엘리베이터,2,,N,보통,제한없음,,정기점검,2019-09-10,대전광역시 유성구청,2020-02-25,3670000,대전광역시 유성구
금정문화회관 앞,일반국도,7번,중앙로,부산광역시 금정구 중앙대로1805번길 6,35.2452438638,129.0926551865,53.75,,,4.6,3,1.2,,Y,E/V형,2,,,, ,양호,제한없음,2017. 11.  도색 완료,정기점검,2019-04-30,부산광역시 금정구청,2020-07-28,3350000,부산광역시 금정구
태광산업 앞,일반국도,7번,중앙로,부산광역시 금정구 중앙대로1841번길 3,35.2483966833,129.0916816569,38,,,4.8,3,1.2,,N,없음,,,,, ,양호,제한없음,2018.10. 도색 완료,정기점검,2019-04-30,부산광역시 금정구청,2020-07-28,3350000,부산광역시 금정구
서곡초교 앞,구도,13번,반송로,부산광역시 금정구 서금로 27,35.2186263063,129.1045777980,18.6,,,4.7,2,1.2,,Y,경사로,1,,,, ,보통,제한없음,2013. 6. 도색완료,정기점검,2019-05-01,부산광역시 금정구청,2020-07-28,3350000,부산광역시 금정구
동상초교 앞,일반국도,14번,반송로,부산광역시 금정구 반송로 376,35.2117498399,129.1065874967,21.2,,,5,2.5,1.2,,N,없음,,,,, ,보통,제한없음,2017. 6.  도색 완료,정기점검,2019-05-01,부산광역시 금정구청,2020-07-28,3350000,부산광역시 금정구
서대구초교 육교,기타,5번,서대구로,대구광역시 서구 비산동 2007-16,35.886802,128.558017,30.6,5,,4.5,4,1.5,8,N,없음,,,,1993-01-01, ,양호,사용제한,도장 보수,정기점검,2019-12-13,대구광역시 서구청,2020-07-10,3430000,대구광역시 서구
서구청앞 육교,기타,50번,국채보상로,대구광역시 서구 평리동 1621-15,35.871418,128.560059,47.9,5,,4.5,4,1.5,10,N,없음,,,,1994-01-01, ,양호,사용제한,도장 보수,정기점검,2019-12-11,대구광역시 서구청,2020-07-10,3430000,대구광역시 서구
서신 육교,기타,50번,국채보상로,대구광역시 서구 비산동 187-2,35.872096,128.573294,38.5,5,,4.5,3,1.5,6,N,없음,,,,1997-01-01, ,양호,사용제한,도장 보수,정기점검,2019-12-12,대구광역시 서구청,2020-07-10,3430000,대구광역시 서구
비산보도 육교,기타,해당없음,경부선(철도),대구광역시 서구 비산동 2100-1,35.883466,128.564391,45,8,,6.5,4,1.5,46,Y,장애인블럭+엘리베이터,1,엘리베이터,2,2012-01-01, ,양호,사용제한,,정기점검,2019-12-13,대구광역시 서구청,2020-07-10,3430000,대구광역시 서구
원대보도 육교,기타,해당없음,경부선(철도),대구광역시 서구 원대동1가 527,35.881248,128.574502,30,6.3,,5.5,4,1.5,42,Y,장애인블럭+엘리베이터,1,엘리베이터,2,2016-01-01, ,양호,사용제한,,정기점검,2019-12-12,대구광역시 서구청,2020-07-10,3430000,대구광역시 서구
광덕보도육교,시도,안산천동로,안산천동로,경기도 안산시 상록구 안산천동로 170,37.330901,126.843576,46.0,,,0.0,,,,N,없음,,,,1991-06-30,N,양호,제한없음,,정기점검,2019-05-20,경기도 안산시 상록구청,2020-05-31,3930000,경기도 안산시
부곡보도육교,시도,성호로,성호로,경기도 안산시 상록구 성호로 285,37.334286,126.861378,41.8,,,4.5,,,,N,없음,,,,1995-03-30,N,양호,제한없음,,정기점검,2019-05-20,경기도 안산시 상록구청,2020-05-31,3930000,경기도 안산시
수암보도육교,시도,노리울길,노리울길,경기도 안산시 상록구 노리울길 34,37.359008,126.874472,35.0,,,4.8,,,,N,없음,,,,2002-12-20,N,양호,제한없음,,정기점검,2019-05-20,경기도 안산시 상록구청,2020-05-31,3930000,경기도 안산시
종합경기장 보도육교,일반국도,7번,동해대로,강원도 동해시 천곡동 731-82,37.515011,129.1041113,13.58,5,,4.5,4,,,Y,경사로,1,,,2002-07-01,N,양호,제한없음,,정기점검,2019-12-14,강원도 동해시,2020-03-16,4210000,강원도 동해시
월피보도육교,시도,안산천서로,안산천서로,경기도 안산시 상록구 안산천서로 205,37.332146,126.846292,46.0,,,0.0,,,,N,없음,,,,1995-12-31,N,양호,제한없음,,정기점검,2019-05-20,경기도 안산시 상록구청,2020-05-31,3930000,경기도 안산시
본오보도육교,시도,선진6길,선진6길,경기도 안산시 상록구 선진6길 70,37.281822,126.850881,42.0,,,4.3,,,,Y,경사로,,,,2001-12-28,N,양호,제한없음,,정기점검,2019-05-20,경기도 안산시 상록구청,2020-05-31,3930000,경기도 안산시
항가울산보도육교,시도,항호3길,항호3길,경기도 안산시 상록구 항호3길 58,37.290361,126.844187,30.2,,,5.0,,,,N,없음,,,,1998-01-30,N,양호,제한없음,,정기점검,2019-05-20,경기도 안산시 상록구청,2020-05-31,3930000,경기도 안산시
용신보도육교,시도,용신로,용신로,경기도 안산시 상록구 용신로 298,37.302398,126.855592,35.5,,,5.0,,,,Y,엘리베이터,,,,2003-06-30,N,양호,제한없음,,정기점검,2019-05-20,경기도 안산시 상록구청,2020-05-31,3930000,경기도 안산시
반월보도육교,시도,건건1길,건건1길,경기도 안산시 상록구 건건1길 7,37.301386,126.901849,40.6,,,4.8,,,,Y,경사로,,,,2003-06-30,N,양호,제한없음,,정기점검,2019-05-20,경기도 안산시 상록구청,2020-05-31,3930000,경기도 안산시
수암1보도육교,시도,장상길,장상길,경기도 안산시 상록구 장상길 3-6,37.361866,126.875500,38.0,,,4.8,,,,Y,경사로,,,,2002-12-20,N,양호,제한없음,,정기점검,2019-05-20,경기도 안산시 상록구청,2020-05-31,3930000,경기도 안산시
사사보도육교,시도,수인로,수인로,경기도 안산시 상록구 수인로 700,37.296161,126.930974,42.0,,,4.8,,,,Y,경사로,,,,1997-12-26,N,양호,제한없음,,정기점검,2019-05-20,경기도 안산시 상록구청,2020-05-31,3930000,경기도 안산시
건건보도육교,시도,반월로,반월로,경기도 안산시 상록구 반월로 27,37.302664,126.902581,40.9,,,5.0,,,,Y,엘리베이터,,,,2003-05-17,N,양호,제한없음,,정기점검,2019-05-20,경기도 안산시 상록구청,2020-05-31,3930000,경기도 안산시
나들이길보도육교,시도,성호로,성호로,경기도 안산시 상록구 성호로 189,37.319198,126.855507,74.1,,,5.0,,,,Y,경사로,,,,2005-01-10,N,양호,제한없음,,정기점검,2019-05-20,경기도 안산시 상록구청,2020-05-31,3930000,경기도 안산시
호수1보도육교,시도,광덕대로,광덕대로,경기도 안산시 상록구 광덕대로 70,37.301731,126.828616,127.0,,,4.5,,,,Y,경사로,,,,2003-12-20,N,양호,제한없음,,정기점검,2019-05-20,경기도 안산시 상록구청,2020-05-31,3930000,경기도 안산시
호수2보도육교,시도,광덕대로,광덕대로,경기도 안산시 상록구 광덕대로 70,37.299731,126.827099,127.0,,,4.5,,,,Y,경사로,,,,2005-12-19,N,양호,제한없음,,정기점검,2019-05-20,경기도 안산시 상록구청,2020-05-31,3930000,경기도 안산시
박우물보도육교,시도,박우물3길,박우물3길,경기도 안산시 상록구 박우물3길 1,37.310290,126.844510,103.0,,,5.5,,,,Y,경사로,,,,2003-12-20,N,양호,제한없음,,정기점검,2019-05-20,경기도 안산시 상록구청,2020-05-31,3930000,경기도 안산시
사리보도육교,시도,해양1로,해양1로,경기도 안산시 상록구 해양1로 11,37.297493,126.822032,51.0,,,4.5,,,,Y,경사로+엘리베이터,,,,2005-12-19,N,양호,제한없음,,정기점검,2019-05-20,경기도 안산시 상록구청,2020-05-31,3930000,경기도 안산시
마로니에보도육교,시도,용신로,용신로,경기도 안산시 상록구 용신로 131,37.304718,126.838498,70.0,,,0.0,,,,N,없음,,,,2003-12-20,N,양호,제한없음,,정기점검,2019-05-20,경기도 안산시 상록구청,2020-05-31,3930000,경기도 안산시
호반1보도육교,시도,안산천남로,안산천남로,경기도 안산시 단원구 안산천남로 14,37.304047,126.823030,76.0,,,0.0,,,,N,없음,,,,2003-12-20,N,양호,제한없음,,정기점검,2019-05-20,경기도 안산시 상록구청,2020-05-31,3930000,경기도 안산시
성포보도육교,시도,삼일로,삼일로,경기도 안산시 상록구 삼일로 670,37.327658,126.850547,36.0,,,4.8,,,,Y,엘리베이터,,,,2006-04-01,N,양호,제한없음,,정기점검,2019-05-20,경기도 안산시 상록구청,2020-05-31,3930000,경기도 안산시
한대앞역보도육교,시도,충장로,충장로,경기도 안산시 상록구 충장로 337,37.310043,126.854015,27.3,,,6.0,,,,Y,엘리베이터,,,,2010-06-01,N,양호,제한없음,,정기점검,2019-05-20,경기도 안산시 상록구청,2020-05-31,3930000,경기도 안산시
조구나리보도육교,시도,안산천남1로,안산천남1로,경기도 안산시 상록구 안산천남1로 100,37.310408,126.842162,60.0,,,0.0,,,,N,없음,,,,2003-12-20,N,양호,제한없음,,정기점검,2018-12-01,경기도 안산시 단원구청,2020-05-31,3930000,경기도 안산시
호반2보도육교,시도,초지1로,초지1로,경기도 안산시 단원구 초지1로 100,37.301593,126.819356,100.0,,,0.0,,,,N,없음,,,,2005-12-19,N,양호,제한없음,,정기점검,2018-12-01,경기도 안산시 단원구청,2020-05-31,3930000,경기도 안산시
도리섬보도육교,시도,화정천서로,화정천서로,경기도 안산시 단원구 화정천서로 161,37.311679,126.820943,50.0,,,0.0,,,,N,없음,,,,2003-12-20,N,양호,제한없음,,정기점검,2019-04-25,경기도 안산시 단원구청,2020-05-31,3930000,경기도 안산시
화정천보도육교,시도,화정천서로,화정천서로,경기도 안산시 단원구 화랑로 312,37.319422,126.821276,150.0,,,0.0,,,,N,없음,,,,2005-06-03,N,양호,제한없음,,정기점검,2019-04-25,경기도 안산시 단원구청,2020-05-31,3930000,경기도 안산시
신길보도육교,시도,중앙대로,중앙대로,경기도 안산시 단원구 중앙대로 397,37.330454,126.784436,48.5,,,4.5,,,,Y,엘리베이터,,,,2010-07-29,N,양호,제한없음,,정기점검,2019-04-25,경기도 안산시 단원구청,2020-05-31,3930000,경기도 안산시
안산역앞보도육교,시도,중앙대로,중앙대로,경기도 안산시 단원구 중앙대로 441,37.328931,126.787450,88.0,,,4.5,,,,Y,엘리베이터,,,,2010-07-29,N,양호,제한없음,,정기점검,2019-04-25,경기도 안산시 단원구청,2020-05-31,3930000,경기도 안산시
관고육교,시도,1호,경충대로,경기도 이천시 경충대로 2675번길 6,37.277032806,127.434816781,28.9,,,4.8,4,,,N,미설치,,캐노피,1,, ,양호,제한없음,,정기점검,2020-06-17,경기도 이천시청,2020-07-16,4070000,경기도 이천시
사음육교,시도,1호,경충대로,경기도 이천시 경충대로 2855,37.2911872999,127.42508231,26,,,5.2,4,,,N,미설치,,,,, ,양호,제한없음,,정기점검,2020-06-17,경기도 이천시청,2020-07-16,4070000,경기도 이천시
지좌2육교,일반국도,국4호,영남대로,경상북도 김천시 영남대로 1996-4,36.118764,128.147093,30,5,,4.9,4,3,,Y,난간,,,,2014-03-19,N,보통,제한없음,여,정기점검,2019-06-29,김천시,2020-03-17,5060000,경상북도 김천시
수광육교,시도,1호,경충대로,경기도 이천시 신둔면 경충대로 3149,37.3074771128,127.40274642,29,,,4.8,5,,,N,설치,2,"엘리베이터,캐노피",3,, ,양호,제한없음,,정기점검,2020-06-17,경기도 이천시청,2020-07-16,4070000,경기도 이천시
중리육교,시도,1호,경충대로,경기도 이천시 경충대로 2626,37.2757654569,127.441256673,28.9,,,4.8,4,,,N,미설치,,,,, ,양호,제한없음,,정기점검,2020-06-17,경기도 이천시청,2020-07-16,4070000,경기도 이천시
진리육교,시도,1호,경충대로,경기도 이천시 경충대로 2483,37.2709176913,127.454868124,31,,,4.8,4,,,N,미설치,,,,, ,양호,제한없음,,정기점검,2020-06-17,경기도 이천시청,2020-07-16,4070000,경기도 이천시
증포육교,일반국도,70호,이섭대천로,경기도 이천시 이섭대천로 1411,37.2938816601,127.4556616045,31.7,,,4.8,3.4,,,N,미설치,,캐노피,1,, ,양호,제한없음,,정기점검,2020-06-17,경기도 이천시청,2020-07-16,4070000,경기도 이천시
신하육교,시도,1호,경충대로,경기도 이천시 부발읍 경충대로 2250,37.2712704091,127.5045006883,30,,,5,5,,,N,설치,2,"엘리베이터,캐노피",3,, ,양호,제한없음,,정기점검,2020-06-17,경기도 이천시청,2020-07-16,4070000,경기도 이천시
사동육교,시도,1호,경충대로,경기도 이천시 대월면 사동로 176,37.244661441,127.494914329,31,,,5,5,,,N,미설치,,,,, ,양호,제한없음,,정기점검,2020-06-17,경기도 이천시청,2020-07-16,4070000,경기도 이천시
온의육교,시도,대로1-2,경춘로,강원도 춘천시 온의동 산30-8,37.8633361,127.719436,34,,13,0,,,,Y,승강기,2,,,1997-08-01,N,보통,제한없음,,정기점검,2019-12-19,춘천시청 도로과,2020-07-17,4180000,강원도 춘천시
칠전육교,시도,대로1-2,경춘로,강원도 춘천시 칠전동 596,37.8405379,127.714284,65,,13,0,5,,,Y,경사로,,,,1998-10-01,N,보통,제한없음,,정기점검,2019-12-19,춘천시청 도로과,2020-07-17,4180000,강원도 춘천시
강서육교,일반국도,36번,가로수로,충청북도 청주시 흥덕구 가로수로,36.6265504,127.4216014,,,,4.8,,,,Y,승강기,2,,,, ,양호,제한없음,,정기점검,2019-05-31,청주시 흥덕구청,2020-07-17,5710000,충청북도 청주시
휴암육교,일반국도,36번,가로수로,충청북도 청주시 흥덕구 가로수로,36.6212533,127.4033582,,,,4.8,,,,Y,승강기,2,,,, ,양호,제한없음,,정기점검,2019-05-31,청주시 흥덕구청,2020-07-17,5710000,충청북도 청주시
오송육교,시도,1-105,오송생명3로,충청북도 청주시 흥덕구 오송읍 오송생명3로,36.6293826,127.3263202,,,,5,,,,Y,승강기+경사로,3,,,, ,양호,제한없음,,정기점검,2019-05-31,청주시 흥덕구청,2020-07-17,5710000,충청북도 청주시
율량육교1,일반국도,17번,없음,충청북도 청주시 청원구 공항로,36.675166,127.483342,34,4.5,,4.5,3.6,,,N,없음,,,,, ,양호,제한없음,,정기점검,2019-03-15,청주시 청원구청,2020-07-17,5710000,충청북도 청주시
율량육교2,일반국도,17번,없음,충청북도 청주시 청원구 공항로,36.674693,127.486861,38,5,,5,4,,,Y,경사로+점자블럭,,,,, ,양호,제한없음,,정기점검,2019-03-15,청주시 청원구청,2020-07-17,5710000,충청북도 청주시
구룡육교,시도,없음,없음,충청북도 청주시 청원구 과학산업2로,36.709231,127.415667,34.2,4.8,,4.8,3,,,N,없음,,,,, ,양호,제한없음,,정기점검,2019-03-15,청주시 청원구청,2020-07-17,5710000,충청북도 청주시
가마육교,일반국도,17,청남로,충청북도 청주시 서원구 남이면 청남로 1804-9,37.0496045,126.6313274,133.2,4.9,,4.5,21,,,N,N,,,,,Y,양호,제한없음,,정기점검,2019-05-31,서원구청,2020-07-17,5710000,충청북도 청주시
충북고앞육교,일반국도,17,청남로,충청북도 청주시 서원구 청남로 1960,36.608376,127.4817602,30,4.6,,4.5,3.4,,,N,N,,,,, ,양호,제한없음,,정기점검,2019-05-31,서원구청,2020-07-17,5710000,충청북도 청주시
사직초교육교,지방도,594,남사로,충청북도 청주시 서원구 모충로145번길,36.6308235,127.4777934,13.3,3.9,,3.9,2.3,,,N,N,,,,, ,보통,제한없음,,정기점검,2019-05-31,서원구청,2020-07-17,5710000,충청북도 청주시
성화보도육교,시도,1058,구룡산로,충청북도 청주시 서원구 구룡산로 24,36.6148013,127.4487713,32,,,4.8,4,,,Y,경사로,,,,, ,양호,제한없음,,정기점검,2019-05-31,서원구청,2020-07-17,5710000,충청북도 청주시
홈플러스앞육교,지방도,594,서부로,충청북도 청주시 흥덕구 서부로 1291,36.614725,127.442641,48,,,5,4.75,,,Y,경사로,,,,, ,양호,제한없음,,정기점검,2019-05-31,서원구청,2020-07-17,5710000,충청북도 청주시
부첫대육교,기타,202,문동길,충청북도 청주시 서원구 남이면 척산화당로 198,36.556463,127.463523,45,11.4,,5,,,,N,N,,,,, ,양호,제한없음,,정기점검,2019-05-31,서원구청,2020-07-17,5710000,충청북도 청주시
점봉육교,일반국도,37호선,국도 37호선,경기도 여주시 세종로 251,37.275701,127.637752,29.8,4.5,,4.5,3.3,2,0,N,없음,,,,1996-01-01,Y,양호,제한없음,,정기점검,2018-12-17,여주시,2020-07-17,5700000,경기도 여주시
교리육교,일반국도,37호선,국도 37호선,경기도 여주시 산 36,37.267992,127.637736,29.8,4.5,,4.5,3.3,2,0,Y,경사로,2,,,1999-01-01,Y,양호,제한없음,,정기점검,2018-12-17,여주시,2020-07-17,5700000,경기도 여주시
교리2육교,일반국도,37호선,국도 37호선,경기도 여주시 점봉동 345-3,37.258077,127.645893,35,4.5,,4.5,3,2,0,Y,경사로,2,,,2006-01-01,Y,양호,제한없음,계단보수,정기점검,2018-12-17,여주시,2020-07-17,5700000,경기도 여주시
동미교,지방도,88호선,국지도 88,경기도 여주시 대신면 여양로 1464,37.375674,127.590802,7,4.5,,4.5,3.5,2,0,N,없음,,,,1982-01-01,N,양호,제한없음,,정기점검,2018-12-17,여주시,2020-07-17,5700000,경기도 여주시
연라육교,지방도,333호선,지방도 333,경기도 여주시 월송동 336-5,37.277511,127.612584,29.6,4.5,,4.5,4,2,0,N,없음,,,,2012-01-01,Y,양호,제한없음,,정기점검,2018-12-17,경기관광고등학교,2020-07-17,5700000,경기도 여주시
시해보도육교,일반국도,3호선,국도 3호선,경기도 여주시 가남읍 태평리 280,37.210793,127.541919,41.3,4.5,,4.5,5.1,2,,Y,엘리베이터,2,,,2009-01-01,Y,양호,제한없음,,정기점검,2018-12-17,국토교통부,2020-07-17,5700000,경기도 여주시
육교,기타,819호선,지방도,전라남도 영암군 삼호읍 녹색로,34.754523,126.474744,32,5,,5,3.7,1,0,N,없음,0,없음,0,, ,양호,제한없음,,정기점검,2017-01-02,전라남도 영암군청,2020-07-13,4940000,전라남도 영암군
명석보도육교,시도,대로3-17,우암로,대전광역시 동구 우암로381번길 3,36.352574,127.453488,22,4.8,,4.8,4,,,N,없음,,,,1996-12-30, ,보통,제한없음,,정기점검,2019-04-03,대전광역시 동구청,2020-07-14,3640000,대전광역시 동구
남문시장 앞 육교,시도,1-2호선,대로,진시장로24,35.1360351,129.0594832,31,4.5,,4.5,2.5,,,N,없음,,,,1970-09-06, ,양호,제한없음,,정기점검,2020-06-26,부산광역시 동구청,2020-07-14,3270000,부산광역시 동구
부산진시장 앞 육교,시도,1-2호선,대로,진시장로24,35.1370426,129.0593482,75,4.7,,4.5,2,,,Y,승강기,,,,2009-03-31, ,양호,제한없음,,정기점검,2020-06-26,부산광역시 동구청,2020-07-14,3270000,부산광역시 동구
두산위브포세이돈 앞 육교,시도,3-4호선,대로,자성로116번길2,35.1364183,129.0629226,38.5,5,,5,3,,,N,없음,,,,2007-02-28, ,양호,제한없음,,정기점검,2020-06-26,부산광역시 동구청,2020-07-14,3270000,부산광역시 동구
좌천구름다리,기타,철도,이면도로,성남이로59번길19-2,35.133138,129.055163,30,8.5,,8.5,3,,,Y,승강기,,,,1970-01-01, ,양호,제한없음,,정기점검,2020-06-26,부산광역시 동구청,2020-07-14,3270000,부산광역시 동구
부산진 과선인도교,기타,철도,이면도로,범일로65번길34,35.136112,129.057281,37,6.5,,6.5,3.5,,,N,없음,,,,1976-01-01, ,양호,제한없음,,정기점검,2020-06-26,부산광역시 동구청,2020-07-14,3270000,부산광역시 동구
범곡교차로 옆 육교,기타,철도,이면도로,범일로125번길67,35.142064,129.057292,30,5.7,,5.7,2.8,,,N,없음,,,,1970-01-01, ,양호,제한없음,,정기점검,2020-06-26,부산광역시 동구청,2020-07-14,3270000,부산광역시 동구
승삼네거리육교,시도,대(주)1-5,원화로,경상북도 경주시 승삼2길 8,35.87643035,129.2282919,33,5,,5,2.8,,,N,없음,,,,1998-01-01,N,양호,제한없음,,정기점검,2019-06-30,경상북도 경주시청,2020-07-15,5050000,경상북도 경주시
근화여고육교,시도,대(주)1-5,원화로,경상북도 경주시 승삼2길 55,35.87190521,129.2272308,30,5,,5,3.5,,,N,없음,,,,1995-01-01,N,양호,제한없음,,정기점검,2019-06-30,경상북도 경주시청,2020-07-15,5050000,경상북도 경주시
괘능보도육교,시도,대(주)1-1,산업로,경상북도 경주시 외동읍 산업로 2847,35.764079,129.312313,25.1,5,,5,2.3,,,N,없음,,,,1996-12-29,N,양호,제한없음,,정기점검,2019-06-30,경상북도 경주시청,2020-07-15,5050000,경상북도 경주시
죽동보도육교,시도,대(주)1-1,산업로,경상북도 경주시 외동읍 산업로 2535-3,35.7367947,129.3185919,23.1,5,,5,2.3,,,N,없음,,,,1996-12-29,N,양호,제한없음,,정기점검,2019-06-30,경상북도 경주시청,2020-07-15,5050000,경상북도 경주시
입실보도육교,시도,대(주)1-1,산업로,경상북도 경주시 외동읍 산업로 2258,35.71263057,129.320185,23.1,5,,5,2.3,,,N,없음,,,,1996-12-29,N,양호,제한없음,,정기점검,2019-06-30,경상북도 경주시청,2020-07-15,5050000,경상북도 경주시
문현교차로육교,시도,-,전포대로,부산광역시 남구 전포대로 10,35.137537662,129.068264019,83,4.5,,5,,,,Y,경사로,,,,1999-09-01, ,양호,제한없음,,정기점검,2017-01-03,부산광역시 남구청,2020-06-25,3310000,부산광역시 남구
대천중학교앞,시도,-,신선로,부산광역시 남구 신선로 491,35.127901575,129.102706810,33,4.8,,5,,,,N,없음,,,,1995-01-01, ,양호,제한없음,,정기점검,2017-02-15,부산광역시 남구청,2020-06-25,3310000,부산광역시 남구
동항초 앞,시도,-,우암로,부산광역시 남구 우암로 42,35.11457304,129.081592414,22.7,5,,5,,,,N,없음,,,,1991-01-01, ,양호,제한없음,,정기점검,2017-02-15,부산광역시 남구청,2020-06-25,3310000,부산광역시 남구
오륙도길,구도,-,오륙도로,부산광역시 남구 오륙도로 85,35.101273056,129.117801592,30.5,5,,5,,,,Y,엘리베이터,,,,2008-12-01, ,양호,제한없음,,정기점검,2017-02-15,부산광역시 남구청,2020-06-25,3310000,부산광역시 남구
신선대지하차도앞,시도,-,신선로,부산광역시 남구 신선로 466,35.126294379,129.101069538,32.75,5,,5,,,,Y,엘리베이터,,,,2016-01-01, ,양호,제한없음,,정기점검,2017-02-15,부산광역시 남구청,2020-06-25,3310000,부산광역시 남구
보행1육교,시도,5001번,정관로,부산광역시 기장군 정관읍 정관로 423,35.331556,129.166948,26.5,5,,4.5,6,,,Y,경사로+승강기,,,,, ,양호,제한없음,,정기점검,2019-12-30,부산광역시 기장군,2020-07-08,3400000,부산광역시 기장군
보행2육교,시도,5001번,정관로,부산광역시 기장군 정관읍 정관로 531,35.323832,129.171849,33,5,,4.5,6,,,Y,경사로+승강기,,,,, ,양호,제한없음,,정기점검,2019-12-30,부산광역시 기장군,2020-07-08,3400000,부산광역시 기장군
보행3육교,시도,5001번,정관로,부산광역시 기장군 정관읍 정관로 569,35.321307,129.176269,33.1,5,,4.5,6,,,Y,경사로+승강기,,,,, ,양호,제한없음,,정기점검,2019-12-30,부산광역시 기장군,2020-07-08,3400000,부산광역시 기장군
보행4육교,시도,5001번,정관로,부산광역시 기장군 정관읍 정관로 601,35.320036,129.179776,33.1,5,,4.5,6,,,Y,경사로+승강기,,,,, ,양호,제한없음,,정기점검,2019-12-30,부산광역시 기장군,2020-07-08,3400000,부산광역시 기장군
보행5육교,시도,81번,정관중앙로,부산광역시 기장군 정관읍 가동3로 30,35.327723,129.1815276,33,5,,4.5,6,,,Y,경사로,,,,, ,양호,제한없음,,정기점검,2019-12-30,부산광역시 기장군,2020-07-08,3400000,부산광역시 기장군
보행6육교,시도,81번,정관중앙로,부산광역시 기장군 정관읍 구연3로 27,35.322511,129.179701,33,5,,4.5,6,,,Y,경사로,,,,, ,양호,제한없음,,정기점검,2019-12-30,부산광역시 기장군,2020-07-08,3400000,부산광역시 기장군
보행7육교,시도,81번,정관중앙로,부산광역시 기장군 정관읍 정관7로 34,35.321518,129.178981,38.1,5,,4.5,6,,,Y,경사로+승강기,,,,, ,양호,제한없음,,정기점검,2019-12-30,부산광역시 기장군,2020-07-08,3400000,부산광역시 기장군
연화육교,시도,2303번,청연로,부산광역시 기장군 기장읍 기장대로 228-3,35.217369,129.211688,30,7.9,,4.5,10,,,N,없음,,,,, ,양호,제한없음,,정기점검,2019-12-30,부산광역시 기장군,2020-07-08,3400000,부산광역시 기장군
청강육교,시도,23번,기장대로,부산광역시 기장군 기장읍 기장대로 436,35.234576,129.2172632,30,7.9,,4.5,10,,,N,없음,,,,, ,양호,제한없음,,정기점검,2019-12-30,부산광역시 기장군,2020-07-08,3400000,부산광역시 기장군
남산육교,시도,2번,남산로,전라남도 순천시 남산로 59 (풍덕동),34.9397335107,127.4950159204,16.3,,,4.3,,,,N,N,,,,1993-01-01,N,보통,제한없음,,정기점검,2019-12-05,순천시청 도로과,2020-02-12,4820000,전라남도 순천시
내리육교,시도,23번,기장대로,부산광역시 기장군 기장읍 기장대로 82-8,35.20405301,129.2071717,43.2,6,,4.5,5.4,,,Y,경사로,,,,, ,양호,제한없음,,정기점검,2017-11-14,부산광역시 기장군,2020-07-08,3400000,부산광역시 기장군
대라철도육교,시도,23번,기장대로,부산광역시 기장군 기장읍 대청로 71번길,35.2377774,129.217104,20,4.5,,4.5,,,,N,없음,,,,, ,양호,제한없음,,정기점검,2019-12-30,부산광역시 기장군,2020-07-08,3400000,부산광역시 기장군
동인육교,시도,50,국채보상로,대구광역시 중구 국채보상로 725,35.868589,128.6098924648,25.9,5.5,,4.5,3.3,,,N,N,0,N,,,N,양호,제한없음,2018년 보수공사,정기점검,2020-06-23,대구광역시 중구청,2020-07-09,3410000,대구광역시 중구
동산육교,시도,57,달성로,대구광역시 중구 큰장로26길 25,35.868951,128.582297,27.9,5.5,,4.5,3.6,,,N,N,0,N,,,N,양호,제한없음,2011년 확장공사,정기점검,2020-06-23,대구광역시 중구청,2020-07-09,3410000,대구광역시 중구
남장보도육교,기타,3-8,기타,충청남도 홍성군 홍성읍 남장리 345-19,36.580489,126.653133,25,,,4.8,2,1.2,0,N,x,0,,,2001-01-01,N,양호,제한없음,,정기점검,2020-05-22,홍성군수,2020-07-08,4600000,충청남도 홍성군
숭의리라초교,시도,00번,소파로,"서울특별시 중구 소파로2길 7, 앞",37.5578209609,126.987214,26.2,,,4.8,3.4,,,N,없음,,,,, ,보통,제한없음,,정기점검,2019-09-10,중구청도로시설과,2020-01-01,3010000,서울특별시 중구
충무초교앞,시도,00번,동호로,"서울특별시 중구 퇴계로50길 13, 앞",37.5619481324,127.002642,28.7,,,4.2,4,,,N,없음,,,,, ,보통,제한없음,,정기점검,2019-09-10,중구청도로시설과,2020-01-01,3010000,서울특별시 중구
서천초육교,군도,서천중2-1호,서천중2-1호,충청남도 서천군 서천읍 서천로 105,36.0776631308,126.6879678660,15,4.45,5,4.4,2,1.5,4,N,없음,0,없음,0,2013-11-30,N,양호,제한없음,도색작업,정기점검,2015-04-09,서천군,2020-07-10,4580000,충청남도 서천군
상계역육교,기타,불명,상계로,서울특별시 노원구 한글비석로 396,37.660479,127.072912,18.6,4.5,,4.5,4,,,N,없음,,,,,N,보통,제한없음,,정기점검,2019-03-19,노원구청 토목과,2020-07-14,3100000,서울특별시 노원구
상징탑육교,기타,불명,동일로,서울특별시 노원구 동일로 1229,37.639896,127.066421,70.2,4.5,,4.5,5,,,Y,경사로,,,,,N,보통,제한없음,,정기점검,2019-03-19,노원구청 토목과,2020-07-14,3100000,서울특별시 노원구
광운대역육교,기타,불명,없음,서울특별시 노원구 마들로1길 44,37.623268,127.062933,200,4.5,,4.5,4.5,,,Y,엘리베이터,,,,,N,보통,제한없음,,정기점검,2019-03-19,노원구청 토목과,2020-07-14,3100000,서울특별시 노원구
삼육육교,기타,불명,화랑로,서울특별시 노원구 화랑로 815,37.638309,127.108037,44,4.5,,4.5,4,,,Y,엘리베이터,,,,,N,보통,제한없음,,정기점검,2019-03-19,노원구청 토목과,2020-07-14,3100000,서울특별시 노원구
백운육교,기타,불명,동일로,서울특별시 노원구 누원로 18,37.6541904,127.055323,166.6,4.5,,4.5,4,,,Y,경사로,,,,,N,양호,제한없음,,정기점검,2019-03-19,노원구청 토목과,2020-07-14,3100000,서울특별시 노원구
수락육교,기타,불명,동일로,서울특별시 노원구 동일로 1794,37.686056,127.055463,110,4.5,,4.5,3.4,,,Y,경사로,,,,,N,양호,제한없음,,정기점검,2019-03-19,노원구청 토목과,2020-07-14,3100000,서울특별시 노원구
상일보도육교,기타,불명,없음,서울특별시 노원구 동일로237길 92,37.673702,127.050074,28,4.5,,4.5,4,,,Y,엘리베이터,,,,,N,양호,제한없음,,정기점검,2019-03-19,노원구청 토목과,2020-07-14,3100000,서울특별시 노원구
나운육교,시도,-,대학로,전라북도 군산시 대학로 257,35.969755,126.698143,21.6,5.5,,5,4,,,N,없음,0,없음,0,1992-04-30,N,양호,제한없음,도장,정기점검,2019-04-01,군산시청,2020-03-13,4670000,전라북도 군산시
동신육교,시도,-,공단대로,전라북도 군산시 축동로 4,35.959582,126.7108828,30,5.1,,4.8,4,,,N,없음,0,없음,0,1998-05-30,N,양호,제한없음,도장,정기점검,2019-04-01,군산시청,2020-03-13,4670000,전라북도 군산시
미룡초교육교,시도,-,대학로,전라북도 군산시 대학로 507,35.950055,126.685785,50.5,5,,4.5,4,,,Y,경사로,1,없음,0,2002-07-30,N,양호,제한없음,,정기점검,2019-04-01,군산시청,2020-03-13,4670000,전라북도 군산시
미성육교,시도,-,대학로,전라북도 군산시 대학로 143,35.978367,126.705275,195,5,,4.5,4,,,Y,경사로,1,없음,0,2003-12-30,N,양호,제한없음,,정기점검,2019-04-01,군산시청,2020-03-13,4670000,전라북도 군산시
개정초교육교,일반국도,27번,번영로,전라북도 군산시 동정1길 19,35.963167,126.769079,32.2,5.5,,4.8,4,,,N,없음,0,없음,0,2004-06-30,N,양호,제한없음,도장,정기점검,2019-04-01,군산시청,2020-03-13,4670000,전라북도 군산시
백천(보도)육교,일반국도,25,국도25호선,경상북도 경산시 경청로,35.802057,128.738375,29.5,5,,4.5,3.6,1.8,5,N,없음,,,,2004-10-30,Y,보통,제한없음,,정기점검,2004-10-30,경상북도 경산시청,2020-06-30,5130000,경상북도 경산시
영대(보도)육교,시도,0,대로2류 1,경상북도 경산시 계양로,35.829674,128.749624,57.6,5,,4.5,3.6,1.8,4,Y,경사로,2,,,2018-11-23,Y,양호,제한없음,,정밀안전진단,2019-03-11,경상북도 경산시청,2020-06-30,5130000,경상북도 경산시
성암(보도)육교,시도,0,대로1류,경상북도 경산시 삼성현로,35.822137,128.717374,32.6,5.2,,4.5,2.6,1.8,4,Y,경사로,2,,,2015-01-30,Y,보통,제한없음,,정기점검,2015-01-30,경상북도 경산시청,2020-06-30,5130000,경상북도 경산시
펜타힐즈보도육교,시도,0,대로1류,경상북도 경산시 펜타힐즈로,35.828473,128.719263,155.4,5.7,,5,5,1.8,3,Y,엘리베이터,2,,,2017-01-25,Y,양호,제한없음,,정기점검,2017-01-25,경상북도 경산시청,2020-06-30,5130000,경상북도 경산시
중방보도육교,기타,0,하천,경상북도 경산시 강변동로,35.826319,128.730438,122,1.2,,4.5,2,1.8,7,Y,경사로,2,,,2012-10-30,Y,양호,제한없음,,정기점검,2012-10-30,경상북도 경산시청,2020-06-30,5130000,경상북도 경산시
정평보도육교,기타,0,하천,경상북도 경산시 강변동로,35.837304,128.730337,115,1.2,,4.5,3,1.8,7,Y,경사로,2,,,2016-09-30,Y,양호,제한없음,,정기점검,2016-09-30,경상북도 경산시청,2020-06-30,5130000,경상북도 경산시
중산(보도)육교,기타,0,경부 철도,경상북도 경산시 옥산로,35.831304,128.722594,30,7.1,,4.5,3,1.8,5,Y,경사로,2,,,2007-10-30,Y,보통,제한없음,,정기점검,2017-10-30,경상북도 경산시청,2020-06-30,5130000,경상북도 경산시
옥곡(보도)육교,기타,0,경부 철도,경상북도 경산시 옥산길,35.812219,128.730696,98,7.1,,4.5,3,1.8,5,Y,경사로,2,,,2008-10-30,Y,보통,제한없음,,정기점검,2008-10-30,경상북도 경산시청,2020-06-30,5130000,경상북도 경산시
공단육교,기타,대로3류48,기타도로,대구광역시 달성군 논공읍 남리 717-1,35.724928,128.455397,22,,,4.5,,,,N,N,,,,,N,양호,제한없음,,정기점검,2019-12-09,대구광역시 달성군청,2020-07-01,3480000,대구광역시 달성군
매곡육교,군도,대로2류63,군도5호,대구광역시 달성군 다사읍 매곡리 1556,35.865538,128.464439,36,,,5,,,,Y,Y,,,,,N,양호,제한없음,,정기점검,2019-12-09,대구광역시 달성군청,2020-07-01,3480000,대구광역시 달성군
학의천1교,시도,학의로,학의로,의왕시 학의로 466,37.391084,126.986321,56,4.08,,3,4.3,1.3,18,Y,경사로,1,-,,,N,양호,제한없음,-,정기점검,2020-04-02,의왕시청,2020-06-23,4030000,경기도 의왕시
응암육교,기타,광로2류23,기타도로,대구광역시 달성군 구지면 응암리 1220,35.654274,128.417498,66,,,4.8,,,,Y,Y,,,,,N,양호,제한없음,,정기점검,2019-12-09,대구광역시 달성군청,2020-07-01,3480000,대구광역시 달성군
화원육교,기타,대로1류12,국도5호,대구광역시 달성군 화원읍 본리리 산 1-7,35.807598,128.508197,30,,,5,,,,N,N,,,,,N,양호,제한없음,,정기점검,2019-12-09,대구광역시 달성군청,2020-07-01,3480000,대구광역시 달성군
본리육교,기타,대로1류12,국도5호,대구광역시 달성군 옥포면 본리리 2531,35.788945,128.465583,35,,,5,,,,N,N,,,,,N,양호,제한없음,,정기점검,2020-01-04,대구광역시 달성군청,2020-07-01,3480000,대구광역시 달성군
세천육교,기타,대로2류63,군도5호,대구광역시 달성군 다사읍 세천리 1633,35.874931,128.481016,30,,,5,,,,Y,Y,,,,,N,양호,제한없음,,정기점검,2019-12-09,대구광역시 달성군청,2020-07-01,3480000,대구광역시 달성군
구산동 보도육교,일반국도,58호선,김해대로,경상남도 김해시 구산동 1083-9,35.252044,128.867447,44,,,4.8,3,,,Y,승강기,,,,, ,양호,제한없음,,정기점검,2020-04-01,김해시청,2020-06-30,5350000,경상남도 김해시
조은금강병원앞 보도육교,일반국도,58호선,김해대로,경상남도 김해시 삼계동 397-5,35.264838,128.863084,30.7,,,5,3,,,N,승강기,,,,, ,양호,제한없음,,정기점검,2020-04-01,김해시청,2020-06-30,5350000,경상남도 김해시
부영6차아파트앞 보도육교,일반국도,58호선,김해대로,경상남도 김해시 삼계동 1436-11,35.260544,128.865325,33.9,,,5,3,,,Y,승강기,,,,, ,양호,제한없음,,정기점검,2020-04-01,김해시청,2020-06-30,5350000,경상남도 김해시
우암초등학교앞 보도육교,일반국도,58호선,금관대로,경상남도 김해시 내동 1073-1,35.244094,128.866949,22.7,,,5,3,,,N,승강기,,,,, ,양호,제한없음,,정기점검,2020-04-01,김해시청,2020-06-30,5350000,경상남도 김해시
금산초등학교앞 보도육교,일반국도,14호선,김해대로,경상남도 김해시 진영읍 좌곤리 358-3,35.292155,128.707997,24,,,4.7,3.5,,,N,없음,,,,, ,양호,제한없음,,정기점검,2020-04-01,김해시청,2020-06-30,5350000,경상남도 김해시
규암농협 앞,기타,대로1-1호선,계백로,충청남도 부여군 규암면 계백로,36.275918,126.887753,33.9,5.2,,5,3.3,1.3,12,N,없음,,,,1997-01-01,N,보통,제한없음,,정기점검,2017-09-20,충청남도 부여군청,2020-06-30,4570000,충청남도 부여군
규암초등학교 앞,기타,대로1-1호선,계백로,충청남도 부여군 규암면 계백로,36.271967,126.865602,21,5,,5,4,1.1,19,N,없음,,비가림시설,1,1997-01-01,N,보통,제한없음,,정기점검,2017-09-20,충청남도 부여군청,2020-06-30,4570000,충청남도 부여군
백제초등학교 앞,기타,대로3-1호선,계백로,충청남도 부여군 부여읍 계백로,36.276113,126.915388,21.5,5,,4.7,2.5,1.4,5,N,없음,,,,1997-01-01,N,보통,제한없음,,정기점검,2017-09-20,충청남도 부여군청,2020-06-30,4570000,충청남도 부여군
부여초등학교 앞,기타,대로3-4호선,계백로,충청남도 부여군 부여읍 계백로,36.283668,126.923441,21.5,5,,5,3,1.2,19,N,없음,,비가림시설,1,1999-01-01,N,보통,제한없음,,정기점검,2017-09-20,충청남도 부여군청,2020-06-30,4570000,충청남도 부여군
남육교,시도,대2-502,신도시남로,인천광역시 중구 운서동 2785-12,37.489929,126.487502,88,5.3,13.5,5.3,4.7,,,Y,경사로,,,,,N,보통,제한없음,,정기점검,2019-05-01,인천광역시 중구청,2020-07-08,3490000,인천광역시 중구
방조제육교,시도,-,영종해안북로,인천광역시 중구 운서동 2826,37.504127,126.487251,70,4.8,13.5,4.8,4.7,,,N,없음,,,,,N,보통,제한없음,,정기점검,2019-05-01,인천광역시 중구청,2020-07-08,3490000,인천광역시 중구
북육교,시도,대2-502,신도시북로,인천광역시 중구 운서동 2708-3,37.500512,126.487961,125,4.7,13.5,4.7,4.7,,,Y,경사로,,,,,N,보통,제한없음,,정기점검,2019-05-01,인천광역시 중구청,2020-07-08,3490000,인천광역시 중구
상업지구육교,시도,대 2-503,흰바위로,인천광역시 중구 운서동 2787-3,37.492467,126.487622,88,5.3,13.5,5.3,4.7,,,Y,경사로,,,,,N,보통,제한없음,,정기점검,2019-05-01,인천광역시 중구청,2020-07-08,3490000,인천광역시 중구
중앙공원,시도,광 3-503,영종대로,인천광역시 중구 운서동 2709-1,37.495233,126.487805,98,4.7,13.5,4.7,4.7,,,Y,경사로,,,,,N,보통,제한없음,,정기점검,2019-05-01,인천광역시 중구청,2020-07-08,3490000,인천광역시 중구
미단시티육교,시도,중 1-595,미단중앙로,인천광역시 중구 운북동 1305,37.575272,126.523697,164.6,4.5,13.5,4.5,2.4,,,Y,경사로+승강기,,,,,N,보통,제한없음,,정기점검,2019-05-01,인천광역시 중구청,2020-07-08,3490000,인천광역시 중구
도 원,시도,2-4번,참외전로,인천광역시 중구 참외전로 212-3,37.470313,126.638703,26,4.5,13.5,4.5,5,,,N,없음,,,,, ,보통,제한없음,,정기점검,2020-04-08,인천광역시 중구청,2020-07-08,3490000,인천광역시 중구
축항로,시도,2-9번,축항대로,인천광역시 중구 축항대로 274,37.44791945,126.625497,44.4,5,13.5,6,4,,,Y,경사로,,,,, ,보통,제한없음,,정기점검,2020-04-08,인천광역시 중구청,2020-07-08,3490000,인천광역시 중구
연 안,시도,2-9번,축항대로,인천광역시 중구 축항대로 234,37.450551,126.622112,44.6,5,13.5,5,4,,,N,없음,,,,, ,보통,제한없음,,정기점검,2020-04-08,인천광역시 중구청,2020-07-08,3490000,인천광역시 중구
인 천 항,시도,2-1번,서해대로,인천광역시 중구 서해대로 314,37.455197,126.628402,45.3,,13.5,4.5,4,,,N,없음,,,,, ,보통,제한없음,,정기점검,2020-04-08,인천광역시 중구청,2020-07-08,3490000,인천광역시 중구
조례육교3,시도,2번,순광로,전라남도 순천시 순광로 75 (조례동),34.9574354207,127.5286641736,23.9,,,4.4,,,,N,N,,,,1995-01-01,N,보통,제한없음,,정기점검,2019-12-05,순천시청 도로과,2020-02-12,4820000,전라남도 순천시
청소년수련관앞육교,구도,중1-83,천지인로 173번길 10,광주광역시 북구 천지인로173번길 10,35.184352,126.917599,22,,,3.5,2.4,,,N,없음,,,,2012-12-16, ,양호,제한없음,,정기점검,2018-12-11,광주광역시 북구청,2020-06-30,3620000,광주광역시 북구
문흥보도육교,시도,대2-16,서하로 407,광주광역시 북구 서하로 407(문흥동),35.183935,126.924024,26.2,,,4.5,3,,,N,없음,,,,1998-03-11, ,양호,제한없음,,정기점검,2018-12-11,광주광역시 북구청,2020-06-30,3620000,광주광역시 북구
서산육교,시도,대3-7,우치로 263,광주광역시 북구 우치로 263(오치동),35.188357,126.905316,22,,,4.7,3,,,N,없음,,,,1993-12-30, ,양호,제한없음,,정기점검,2018-12-11,광주광역시 북구청,2020-06-30,3620000,광주광역시 북구
고려중앞육교,시도,대1-25,설죽로 376,광주광역시 북구 설죽로 376(삼각동),35.193035,126.898899,24,,,4.8,3,,,N,없음,,,,1997-04-30, ,양호,제한없음,,정기점검,2018-12-11,광주광역시 북구청,2020-06-30,3620000,광주광역시 북구
삼각초교앞육교,시도,대1-25,설죽로 447,광주광역시 북구 설죽로 447(삼각동),35.199399,126.899814,24.7,,,4.8,3,,,N,없음,,,,1998-11-04, ,양호,제한없음,,정기점검,2018-12-11,광주광역시 북구청,2020-06-30,3620000,광주광역시 북구
용봉천육교,시도,대1-25,설죽로 239,광주광역시 북구 설죽로 239(용봉동),35.180797,126.898385,24.7,,,4.5,3,,,N,없음,,,,1998-12-31, ,양호,제한없음,,정기점검,2018-12-11,광주광역시 북구청,2020-06-30,3620000,광주광역시 북구
운암철도횡단육교,기타,철로,운신북길 137,광주광역시 북구 운신북길 137(운암동),35.172624,126.880886,19,,,7,3,,,N,없음,,,,2000-07-28, ,양호,제한없음,,정기점검,2018-12-11,광주광역시 북구청,2020-06-30,3620000,광주광역시 북구
동운고가철도횡단육교,기타,철로,죽봉대로 210,광주광역시 북구 죽봉대로 210(운암동),35.172262,126.884966,20.5,,,6,1.5,,,N,없음,,,,1992-05-31, ,양호,제한없음,,정기점검,2018-12-11,광주광역시 북구청,2020-06-30,3620000,광주광역시 북구
운암육교,시도,광3-2,북문대로 25,광주광역시 북구 북문대로 25(운암동),35.174176,126.882421,27.7,,,4.5,3.3,,,N,없음,,,,1989-12-29, ,양호,제한없음,,정기점검,2018-12-11,광주광역시 북구청,2020-06-30,3620000,광주광역시 북구
문예회관앞육교,시도,광3-2,북문대로 50,광주광역시 북구 북문대로 50(운암동),35.175993,126.880457,36,,,4.5,4,,,N,없음,,,,1997-08-25, ,양호,제한없음,,정기점검,2018-12-11,광주광역시 북구청,2020-06-30,3620000,광주광역시 북구
수창육교,시도,대2-6,금남로 113,광주광역시 북구 금남로 113(북동),35.155591,126.907311,20,,,4.4,3.4,,,N,없음,,,,1972-12-29, ,양호,제한없음,,정기점검,2018-12-11,광주광역시 북구청,2020-06-30,3620000,광주광역시 북구
용봉육교,시도,대1-1,서암대로 144번길 11,광주광역시 북구 서암대로144번길 11(신안동),35.169655,126.900254,27,,,4.8,3,,,N,없음,,,,1991-12-30, ,양호,제한없음,,정기점검,2018-12-11,광주광역시 북구청,2020-06-30,3620000,광주광역시 북구
동강육교,시도,대1-2,동문대로 53,광주광역시 북구 동문대로 53(우산동),35.169549,126.920755,27,,,4.9,3,,,N,없음,,,,1992-12-30, ,양호,제한없음,,정기점검,2018-12-11,광주광역시 북구청,2020-06-30,3620000,광주광역시 북구
동림초교앞육교,시도,대1-6,북문대로 236,광주광역시 북구 북문대로 236(동림동),35.186674,126.867035,32,,,5,2.9,,,N,없음,,,,1998-11-04, ,양호,제한없음,,정기점검,2018-12-11,광주광역시 북구청,2020-06-30,3620000,광주광역시 북구
연제보도교,시도,대3-39,첨단연신로91번길22,광주광역시 북구 첨단연신로91번길 22(신용동),35.206233,126.861585,28,,,4.5,5,,,Y,점자블럭+경사로,,,,2014-12-11, ,양호,제한없음,,정기점검,2018-12-11,광주광역시 북구청,2020-06-30,3620000,광주광역시 북구
양산제2육교,시도,대2-7,하서로 225,광주광역시 북구 하서로 225(양산동),35.195245,126.876865,25.8,,,5,3,,,N,없음,,,,1997-06-07, ,양호,제한없음,,정기점검,2018-12-11,광주광역시 북구청,2020-06-30,3620000,광주광역시 북구
신안육교,시도,3번,신안로,경상남도 진주시 신안로 52,35.183259,128.070755,36.6,4.5,3.5,4.5,3,1.2,6,N,없음,,없음,,1995-01-01,N,양호,제한없음,,정기점검,2020-06-01,경상남도 진주시,2020-06-30,5310000,경상남도 진주시
도동육교,시도,3번,대신로,경상남도 진주시 대신로 324,35.189301,128.116811,28.9,4.5,3.5,4.5,3,1.2,6,N,없음,,없음,,1992-01-01,N,양호,제한없음,,정기점검,2020-06-01,경상남도 진주시,2020-06-30,5310000,경상남도 진주시
칠암육교,시도,3번,동진로,경상남도 진주시 동진로 46,35.179063,128.096529,20.5,4.5,3.5,4.5,3,1.2,6,N,없음,,없음,,1996-01-01,N,양호,제한없음,,정기점검,2020-06-01,경상남도 진주시,2020-06-30,5310000,경상남도 진주시
상대육교,시도,3번,동진로,경상남도 진주시 동진로 155,35.179611,128.109317,20.5,4.5,3.5,4.5,3,1.2,5,N,없음,,없음,,1994-01-01,N,양호,제한없음,,정기점검,2020-06-01,경상남도 진주시,2020-06-30,5310000,경상남도 진주시
개양육교,시도,3번,진주대로,경상남도 진주시 진주대로 488,35.150064,128.103975,32.5,4.5,3.5,4.5,3,1.2,6,Y,경사로,1,없음,,2006-01-01,N,양호,제한없음,,정기점검,2020-06-01,경상남도 진주시,2020-06-30,5310000,경상남도 진주시
대림육교,일반국도,"31, 35",태백로,강원도 태백시 태백로 1037,37.1607811,128.990816,22.6,5.8,5,4.5,1.8,1.3,0,N,-,0,-,0,1994-01-01,N,양호,제한없음,"육교도색,데크보수",정기점검,2020-06-30,태백시청,2020-07-13,4220000,강원도 태백시
상장육교,일반국도,"31, 35",태백로,강원도 태백시 태백로 1221,37.1508221,128.991114,22.6,5.8,5,4.3,1.8,1.3,0,N,-,0,-,0,1991-01-01,N,양호,제한없음,"육교도색,데크보수",정기점검,2020-06-30,태백시청,2020-07-13,4220000,강원도 태백시
논산역 인도육교,기타,1,해월로,충청남도 논산시 계백로 1091,36.2083686,127.095995,90,4.8,,4,,,,N,없음,,,,,Y,양호,제한없음,,정기점검,2019-03-25,충청남도 논산시,2020-05-08,4540000,충청남도 논산시
놀뫼대로 보도육교,기타,1,도시계획도로,충청남도 논산시 득안대로 1499,36.1969545,127.083561,28,4.8,,4,2.5,,,N,없음,,,,,Y,양호,제한없음,,정기점검,2019-03-25,충청남도 논산시,2020-05-08,4540000,충청남도 논산시
득안대로 보도육교,기타,1,도시계획도로,충청남도 논산시 시민로307번길 17,36.1920267,127.089756,28,4.8,,4,2.5,,,N,없음,,,,,Y,양호,제한없음,,정기점검,2019-03-25,충청남도 논산시,2020-05-08,4540000,충청남도 논산시
골사그네육교,일반국도,국도1호선,경수대로,의왕시 경수대로 81,37.334824,126.980738,51.7,4.5,,4.5,3,1.05,12,Y,경사로,2,-,,2001-12-31,N,양호,제한없음,-,정기점검,2020-04-02,의왕시청,2020-06-23,4030000,경기도 의왕시
갈미제1육교,시도,갈미로,갈미로,의왕시 갈미로 61,37.376677,126.974445,43.8,5.3,,4.5,3,1.4,2,Y,경사로,2,-,,2001-12-30,N,양호,제한없음,-,정기점검,2020-04-02,의왕시청,2020-06-23,4030000,경기도 의왕시
갈미제2육교,시도,갈미1로,갈미1로,의왕시 갈미로 27,37.377178,126.971818,44,5.3,,4.5,3,1.4,2,Y,경사로,2,-,,2001-12-31,N,양호,제한없음,-,정기점검,2020-04-02,의왕시청,2020-06-23,4030000,경기도 의왕시
갈미제4육교,시도,계원대학로,관평로,의왕시 계원대학로 34,37.379418,126.974829,76.4,5.3,,4.5,3,1.3,9,Y,경사로,2,-,,2001-12-30,N,양호,제한없음,-,정기점검,2020-04-02,의왕시청,2020-06-23,4030000,경기도 의왕시
의왕초교육교,시도,모락로,모락로,의왕시 모락로 56,37.363331,126.967444,30,4.9,,4.8,3,1.57,52,Y,경사로,2,캐노피,1,2002-12-31,N,양호,제한없음,-,정기점검,2020-04-02,의왕시청,2020-06-23,4030000,경기도 의왕시
청계육교,시도,안양판교로,안양판교로,의왕시 안양판교로 238,37.388940,126.997523,41,5.2,,5,3,1.3,22,Y,점자블럭+엘리베이터,3,엘리베이터,2,2008-12-31,N,양호,제한없음,"목재데크, 재 도장",정기점검,2020-04-02,의왕시청,2020-06-23,4030000,경기도 의왕시
고천육교,일반국도,국도1호선,경수대로,의왕시 경수대로 233,37.347615,126.974206,33,6.3,,5,4.4,1.15,8,Y,점자블럭+엘리베이터,3,엘리베이터,2,2007-12-30,N,양호,제한없음,-,정기점검,2020-04-02,의왕시청,2020-06-23,4030000,경기도 의왕시
오전육교,일반국도,국도1호선,경수대로,의왕시 경수대로 307,37.353631,126.970361,76.4,6.5,,5,4.4,1.17,8,Y,점자블럭+엘리베이터,3,엘리베이터,2,2007-12-30,N,양호,제한없음,"목재데크, 배수관 재설치",정기점검,2020-04-02,의왕시청,2020-06-23,4030000,경기도 의왕시
의왕역보도육교,시도,왕송못동로,왕송못동로,의왕시 왕송못동로 79,37.321324,126.945829,40,6.5,,5,5,1.87,17,Y,경사로+엘리베이터,2,캐노피+엘리베이터,2,,N,양호,제한없음,-,정기점검,2020-04-02,의왕시청,2020-06-23,4030000,경기도 의왕시
포일숲속보도육교,시도,성고개로,성고개로,의왕시이미로 40,37.401793,126.991860,34,5.7,,5.5,3.5,1.2,7,Y,점자블록+엘리베이터,3,엘리베이터,2,,N,양호,제한없음,-,정기점검,2020-04-02,의왕시청,2020-06-23,4030000,경기도 의왕시
등산보도육교,시도,안양판교로,안양판교로,의왕시 하오개로 60,37.393587,127.038143,62,,,5,3,2.3,6,N,-,0,-,,,N,양호,제한없음,-,정기점검,2020-04-02,의왕시청,2020-06-23,4030000,경기도 의왕시
의왕톨게이트육교,지방도,지방도309호선,과천봉담도고속화도로,의왕시 오전로 24,37.347446,126.984456,130,5.1,,4.5,2.4,1.95,2,Y,엘리베이터,2,캐노피+엘리베이터,3,2017-12-31,N,양호,제한없음,,정기점검,2020-04-02,의왕시청,2020-06-23,4030000,경기도 의왕시
학의천2교,시도,안양판교로,안양판교로,의왕시 안양판교로 226,37.387759,126.990659,50,3.6,,3,4.3,1.3,8,Y,경사로,1,-,,,N,양호,제한없음,-,정기점검,2020-04-02,의왕시청,2020-06-23,4030000,경기도 의왕시
금천보도교,시도,왕송못동로,왕송못동로,의왕시 왕송못동로 78,37.321961,126.945377,26,1.8,,0,6,1.2,0,Y,경사로,1,-,,,N,양호,제한없음,-,정기점검,2020-04-02,의왕시청,2020-06-23,4030000,경기도 의왕시
호암지육교,시도,대로3-3호선,대로3-3호선,충청북도 충주시 호암동 584-6,36.964294562,127.924623498,,,,4.5,,,,Y,경사로,,,,, ,양호,제한없음,,정기점검,2020-06-23,충청북도 충주시,2020-06-30,4390000,충청북도 충주시
목행육교,시도,대로1-1호선,대로1-1호선,충청북도 충주시 목행동 508-18,37.003759834,127.916596639,,,,5,,,,N,없음,,,,, ,양호,제한없음,,정기점검,2020-06-23,충청북도 충주시,2020-06-30,4390000,충청북도 충주시
달천초교앞육교,일반국도,3호선,3호선,충청북도 충주시 용두동 462-1,36.962287569,127.879541866,,,,5,,,,N,없음,,,,, ,양호,제한없음,,정기점검,2020-06-23,충청북도 충주시,2020-06-30,4390000,충청북도 충주시
기업도시 육교 1호,시도,대로3-가금1호선,대로3-가금1호선,충청북도 충주시 중앙탑면 용전리 726,37.014284697,127.826973709,,,,4.5,,,,Y,엘리베이터,,,,, ,양호,제한없음,,정기점검,2020-06-23,충청북도 충주시,2020-06-30,4390000,충청북도 충주시
기업도시 육교 2호,시도,대로2-주덕1호선,대로2-주덕1호선,충청북도 충주시 주덕읍 화곡리 1259,37.006543531,127.815413162,,,,4.5,,,,Y,엘리베이터,,,,, ,양호,제한없음,,정기점검,2020-06-23,충청북도 충주시,2020-06-30,4390000,충청북도 충주시
부평역,기타,철도,철도,인천광역시 부평구 광장로16,37.489310904,126.722286102,70,7.5,7.5,7,3,2,8,N,N,,,,1971-01-01,N,미흡,제한없음,"2017년 부평역 보도육교 보수,보강 공사",정기점검,2020-04-03,인천광역시 부평구 도로과,2020-07-08,3540000,인천광역시 부평구
서초,기타,철도,철도,인천광역시 부평구 경인로1083번길 62,37.488451114,126.742469790,45.4,7.5,7.5,7,5,2,10,N,N,,,,1994-01-02,N,보통,제한없음,"2015년 서초보도육교 바닥정비 공사2017 부개서초보도육교 정비공사-바닥면 철거, 판석 철거, 도막 포장",정기점검,2020-04-03,인천광역시 부평구 도로과,2020-07-08,3540000,인천광역시 부평구
신촌,시도,경원대로,경원대로,인천광역시 부평구 경원대로 1222,37.486109497,126.707118532,39,5,7.5,4.5,4,1.2,10,Y,경사로,2,,,2001-05-07,N,보통,제한없음,"2010년 신촌보도육교 보수공사2019년 신촌보도육교 정비공사-도장(벽체, 천정) , 포장보수",정기점검,2020-04-03,인천광역시 부평구 도로과,2020-07-08,3540000,인천광역시 부평구
구산동,시도,무네미로,무네미로,인천광역시 부평구 무네미로 478,37.476266094,126.752465974,36.1,5,7.5,4.5,4,1.2,0,Y,경사로,2,,,2001-04-06,N,보통,제한없음,,정기점검,2020-04-03,인천광역시 부평구 도로과,2020-07-08,3540000,인천광역시 부평구
행복육교,기타,동수북로,동수북로,인천광역시 부평구 동수북로,37.487714585,126.714085903,49,5,7.5,4.5,3,1.2,8,N,승강기,2,,,2005-01-02,N,양호,제한없음,,정기점검,2020-04-03,인천광역시 부평구 도로과,2020-07-08,3540000,인천광역시 부평구
구산초교,시도,길주로,길주로,인천광역시 부평구 길주로,37.50659343,126.7396592,34,5,7.5,4.5,6,1.2,4,Y,경사로,2,,,2004-01-02,N,보통,제한없음,,정기점검,2020-04-03,인천광역시 부평구 도로과,2020-07-08,3540000,인천광역시 부평구
굴포초교,시도,굴포로,굴포로,인천광역시 부평구 굴포로,37.51166541,126.7373257,41.5,5,7.5,4.5,6,1.2,6,Y,경사로,2,,,2004-01-01,N,보통,제한없음,2012년 굴포초교보도육교 계단보수공사 시행,정기점검,2020-04-03,인천광역시 부평구 도로과,2020-07-08,3540000,인천광역시 부평구
진산초교,시도,수변로,수변로,인천광역시 부평구 수변로,37.51213891,126.7405985,41.5,5,7.5,4.5,4,1.2,0,N,N,,,,2004-01-02,N,보통,제한없음,,정기점검,2020-04-03,인천광역시 부평구 도로과,2020-07-08,3540000,인천광역시 부평구
여울보도육교,시도,"굴포천, 굴포로","굴포천, 굴포로",인천광역시 부평구 굴포로,37.51333362,126.7410016,138,5,7.5,4.5,4,1.2,14,Y,경사로,3,,,2004-01-02,N,보통,제한없음,,정기점검,2020-04-03,인천광역시 부평구 도로과,2020-07-08,3540000,인천광역시 부평구
삼산1보도육교,구도,영성동로17번길,영성동로18번길,인천광역시 부평구 영성동로 18번길,37.51819546,126.7497965,31.2,5,7.5,4.5,6.5,1.2,0,Y,"경사로,승강기",4,,,2010-01-01,N,보통,제한없음,2015년 삼산1보도육교 합성데크 보수공사,정기점검,2020-04-03,인천광역시 부평구 도로과,2020-07-08,3540000,인천광역시 부평구
삼산2보도육교,시도,평천로,평천로,인천광역시 부평구 평천로,37.51655745,126.7485267,70.9,5,7.5,4.5,5.5,1.2,0,Y,"경사로,승강기",4,,,2010-01-02,N,보통,제한없음,2019년 삼산2보도육교 정비공사-상판 목재 데크 교체-하부 각파이브 정비,정기점검,2020-04-03,인천광역시 부평구 도로과,2020-07-08,3540000,인천광역시 부평구
우신초교 앞 보도육교,시도,147,신길로,서울특별시 영등포구 신길로 190,37.509263,126.910801,23,4.7,,4.5,3.4,1,8,Y,점자블록+핸드레일 촉지판,24,,,1980-09-18, ,보통,제한없음,,정기점검,2020-03-04,영등포구청,2020-05-08,3180000,서울특별시 영등포구
영등포수원지 앞 보도육교,시도,199,노들로,서울특별시 영등포구 양화동 1,37.547472,126.883871,40,5.4,,4.6,3.6,1,6,Y,점자블록,,,,1980-09-18, ,보통,제한없음,,정기점검,2020-03-04,영등포구청,2020-05-08,3180000,서울특별시 영등포구
영등포역 횡단 보도육교,기타,없음,경인선,서울특별시 영등포구 경인로94길 7,37.513895,126.903695,83,,0.5,5.6,3.2,1.8,14,Y,엘리베이터,,,,1974-12-01, ,보통,제한없음,콘크리트면 보수,정기점검,2020-03-04,영등포구청,2020-05-08,3180000,서울특별시 영등포구
문래 보도육교,시도,245,서부간선도로,서울특별시 영등포구 문래로4길 4,37.520246,126.882018,40,5.1,0.5,4.5,4,1.2,,Y,엘리베이터,,,,2006-06-30,Y,양호,제한없음,"구조물세척, 재도장(부분), 교대측면 마감철판 설치",정기점검,2020-03-04,영등포구청,2020-05-08,3180000,서울특별시 영등포구
양평1 보도육교,시도,245,서부간선도로,서울특별시 영등포구 양산로 3,37.526193,126.883081,43,5.7,0.5,4.5,4,1.2,,Y,엘리베이터,,,,2006-06-30,Y,양호,제한없음,구조물 재도장,정기점검,2020-03-04,영등포구청,2020-05-08,3180000,서울특별시 영등포구
양평2 보도육교,시도,245,서부간선도로,서울특별시 영등포구 양평로21길 26,37.533447,126.891821,45,5.7,0.34,4.5,4,1.2,,Y,엘리베이터,,,,2006-06-30,Y,양호,제한없음,"구조물 세척, 재도장",정기점검,2020-03-04,영등포구청,2020-05-08,3180000,서울특별시 영등포구
도림 보도육교,기타,없음,도림천,서울특별시 영등포구 도영로7길 15,37.508955,126.892771,104.6,,,4.5,2.5,1.2,,Y,턱낮추기,,,,2016-10-31,Y,양호,제한없음,"구조물 세척, 재도장(부분)",정기점검,2020-03-04,영등포구청,2020-05-08,3180000,서울특별시 영등포구
선유도 기존보도육교,시도,199,"노들로, 올림픽대로",서울특별시 영등포구 양평로24길 36,37.541546,126.895135,108,,,4.5,4,1,5,Y,엘리베이터,,,,1978-11-30, ,양호,제한없음,"구조물세척, 계단 난간 보수, 기초부 마감재 보수, 강재 도장",정기점검,2020-03-04,영등포구청,2020-05-08,3180000,서울특별시 영등포구
신영로타리 보도육교,특별시도,4901번,세검정로9길 1 앞,서울특별시 종로구 세검정로,37.603668,126.961852,111,4.7,,4.5,4,1.2,14,N,없음,0,없음,0,1992-12-28,N,보통,제한없음,,정밀점검,2019-12-09,종로구청 도로과,2020-07-07,3000000,서울특별시 종로구
세검 보도육교,특별시도,4901번,세검정로 265 앞,서울특별시 종로구 세검정로,37.602095,126.961137,25,4.8,,4.5,3.5,1.2,,Y,엘리베이터,2,없음,0,2018-05-21,Y,양호,제한없음,신설,정기점검,2018-11-28,종로구청 도로과,2020-07-07,3000000,서울특별시 종로구
서울예고앞 보도육교,특별시도,4901번,평창문화로 65 앞,서울특별시 종로구 평창문화로,37.606153,126.968444,27,5,,4.7,3.5,1.2,83,Y,엘리베이터,2,없음,0,2018-05-21,Y,양호,제한없음,신설,정기점검,2018-11-28,종로구청 도로과,2020-07-07,3000000,서울특별시 종로구
남산2호터널앞보도육교,특별시도,31번,녹사평대로,서울특별시 용산구 녹사평대로 286,37.5431276250,126.9895128193,,,,4.5,,,,Y,엘리베이터,,,,,N,보통,제한없음,,정기점검,2020-03-05,서울특별시 용산구청,2020-06-26,3020000,서울특별시 용산구
남산3호터널앞보도육교,특별시도,31번,녹사평대로,서울특별시 용산구 녹사평대로 246,37.5395486555,126.9874766327,,,,4.3,,,,Y,엘리베이터,,,,,N,보통,제한없음,,정기점검,2020-03-05,서울특별시 용산구청,2020-06-26,3020000,서울특별시 용산구
녹사평보도육교,특별시도,31번,녹사평대로,서울특별시 용산구 녹사평대로 지하 195,37.5348309689,126.9870293785,,,,4.9,,,,Y,엘리베이터,,,,,N,보통,제한없음,,정기점검,2020-03-05,서울특별시 용산구청,2020-06-26,3020000,서울특별시 용산구
반포대교북단보도육교,특별시도,31번,서빙고로,서울특별시 용산구 서빙고로 269,37.5203686209,126.9935204660,,,,4.3,,,,N,-,,,,,N,미흡,제한없음,,정기점검,2020-03-05,서울특별시 용산구청,2020-06-26,3020000,서울특별시 용산구
북한남삼거리보도육교,특별시도,41번,한남대로,서울특별시 용산구 한남대로 152,37.5419747665,127.0032497539,,,,4.5,,,,Y,경사로,,,,,N,양호,제한없음,,정기점검,2020-03-05,서울특별시 용산구청,2020-06-26,3020000,서울특별시 용산구
서빙고역앞보도육교,시도,-,서빙고로,서울특별시 용산구 서빙고로 246,37.5199143363,126.9908192076,,,,4.5,,,,Y,엘리베이터,,,,,N,보통,제한없음,,정기점검,2020-03-05,서울특별시 용산구청,2020-06-26,3020000,서울특별시 용산구
용산가족공원보도육교,시도,-,서빙고로,서울특별시 용산구 서빙고로 137,37.5247023260,126.9777411515,,,,9,,,,Y,엘리베이터,,,,,N,미흡,제한없음,,정기점검,2020-03-05,서울특별시 용산구청,2020-06-26,3020000,서울특별시 용산구
크라운호텔앞보도육교,특별시도,31번,녹사평대로,서울특별시 용산구 녹사평대로 134,37.5307263864,126.9911210870,,,,4.2,,,,N,-,,,,,N,미흡,제한없음,,정기점검,2020-03-05,서울특별시 용산구청,2020-06-26,3020000,서울특별시 용산구
오산대역(국도1) 보도육교,일반국도,대1-1호선,국도,경기도 오산시 청학로 236,37.169115,127.064049,44.4,4,,4,4,1.2,,Y,승강기점자블럭,2,,,2011-01-01,N,양호,제한없음,,정기점검,2019-12-28,경기도오산시,2020-03-01,4000000,경기도 오산시
한강중학교앞보도육교,시도,-,서빙고로,서울특별시 용산구 서빙고로62길3,37.5197487501,126.9938825017,,,,4.2,,,,Y,엘리베이터,,,,,N,미흡,제한없음,,정기점검,2020-03-05,서울특별시 용산구청,2020-06-26,3020000,서울특별시 용산구
한강초교앞보도육교,특별시도,21번,한강대로,서울특별시 용산구 한강대로 54,37.5254668033,126.9647040479,,,,4.2,,,,Y,엘리베이터,,,,,N,양호,제한없음,,정기점검,2020-03-05,서울특별시 용산구청,2020-06-26,3020000,서울특별시 용산구
한남초교앞보도육교,특별시도,41번,한남대로,서울특별시 용산구 한남대로 112,37.5392032028,127.0055986027,,,,4.3,,,,Y,엘리베이터,,,,,N,미흡,제한없음,,정기점검,2020-03-05,서울특별시 용산구청,2020-06-26,3020000,서울특별시 용산구
한남오거리앞보도육교,특별시도,41번,한남대로,서울특별시 용산구 한남대로 76,37.5355631122,127.0065487343,,,,4.5,,,,N,-,,,,,N,미흡,제한없음,,정기점검,2020-03-05,서울특별시 용산구청,2020-06-26,3020000,서울특별시 용산구
이촌고가차도,구도,-,이촌로,서울특별시 용산구 이촌로 100-8,37.5244879113,126.9579666907,,,,0,,,,Y,엘리베이터,,,,,N,보통,제한없음,,정기점검,2020-03-05,서울특별시 용산구청,2020-06-26,3020000,서울특별시 용산구
한별초등학교 앞 육교,기타,대2-3,순화궁로,경기도 남양주시 별내3로 23,37.648481,127.114536,38,5,,5,,,,Y,점자블럭+경사로,,,,,Y,양호,제한없음,,정기점검,2019-12-31,경기도 남양주시청,2020-07-03,3990000,경기도 남양주시
신일 유토빌 앞 육교,기타,대2-3,순화궁로,경기도 남양주시 별내4로 25,37.646431,127.117299,38,5,,5,,,,Y,점자블럭+경사로,,,,,Y,양호,제한없음,,정기점검,2019-12-31,경기도 남양주시청,2020-07-03,3990000,경기도 남양주시
대원칸타빌 앞 육교,기타,대1-2,불암로,경기도 남양주시 불암로 336,37.663328,127.126349,38,5,,5,,,,Y,점자블럭+경사로,,,,,Y,양호,제한없음,,정기점검,2019-12-31,경기도 남양주시청,2020-07-03,3990000,경기도 남양주시
별내동 주민센터앞육교,기타,대1-1,별내2로,경기도 남양주시 별내3로 64-21,37.645546,127.122998,52.5,5,,5,,,,Y,점자블럭+경사로+엘리베이터,,,,,Y,양호,제한없음,,정기점검,2019-12-31,경기도 남양주시청,2020-07-03,3990000,경기도 남양주시
진접지구보도육교1.2,기타,대2-1,해밀예당1로,경기도 남양주시 진접읍 해밀예당1로 109,37.718715,127.191927,46,5.9,,5,,,,Y,점자블럭+경사로+엘리베이터,,,,,Y,양호,제한없음,,정기점검,2019-12-31,경기도 남양주시청,2020-07-03,3990000,경기도 남양주시
진접지구보도육교1.2,기타,대2-1,해밀예당1로,경기도 남양주시 진접읍 해밀예당1로 53,37.715392,127.188966,40,5.2,,5,,,,Y,점자블럭+경사로+엘리베이터,,,,,Y,양호,제한없음,,정기점검,2019-12-31,경기도 남양주시청,2020-07-03,3990000,경기도 남양주시
다산육교,기타,대1-1,다산지금로,경기도 남양주시 다산지금로 141,37.599854,127.1740815,55.6,4.5,,5,,,,Y,점자블럭+엘리베이터,,,,,Y,양호,제한없음,,정기점검,2019-02-28,경기도 남양주시청,2020-07-03,3990000,경기도 남양주시
다모아보도육교,구도,0,갑천도시고속도로,대전광역시 서구 갑천도시고속도로,36.363314,127.366608,54,5,,4.5,4,1.1,8,Y,경사로,,,,1997-01-01, ,보통,제한없음,,정기점검,2019-06-21,대전광역시 서구청,2020-06-30,3660000,대전광역시 서구
갑천1보도육교,구도,0,갑천도시고속도로,대전광역시 서구 갑천도시고속도로,36.358292,127.359842,35,5,,4.5,4,1,10,Y,경사로,,,,1993-01-01, ,미흡,제한없음,,정기점검,2019-06-21,대전광역시 서구청,2020-06-30,3660000,대전광역시 서구
갑천2보도육교,구도,0,한밭대로,대전광역시 서구 한밭대로,36.358777,127.360615,52,5,,4.5,4,1,23,Y,경사로,,,,1993-01-01, ,보통,제한없음,,정기점검,2019-06-21,대전광역시 서구청,2020-06-30,3660000,대전광역시 서구
누리보도육교,구도,0,한밭대로,대전광역시 서구 한밭대로,36.357774,127.368599,47,5.2,,4.5,3,1.1,8,Y,경사로,,,,2000-02-01, ,양호,제한없음,,정기점검,2019-06-21,대전광역시 서구청,2020-06-30,3660000,대전광역시 서구
수정보도육교,구도,0,한밭대로,대전광역시 서구 한밭대로,36.357677,127.397012,31.2,6,,4.5,4,1,11,Y,경사로,,,,1996-01-01, ,양호,제한없음,,정기점검,2019-06-21,대전광역시 서구청,2020-06-30,3660000,대전광역시 서구
한밭보도육교,구도,0,한밭대로,대전광역시 서구 한밭대로,36.35804553,127.400645293,138.3,6,,4.5,4,1,21,Y,경사로,,,,1992-01-01, ,보통,제한없음,,정기점검,2019-06-21,대전광역시 서구청,2020-06-30,3660000,대전광역시 서구
가람보도육교,구도,0,유등로,대전광역시 서구 유등로,36.324344,127.401257,39.6,6,,4.5,4,1,11,Y,경사로,,,,1992-01-01, ,보통,제한없음,,정기점검,2019-06-21,대전광역시 서구청,2020-06-30,3660000,대전광역시 서구
갈마보도육교,일반국도,0,계룡로,대전광역시 서구 계룡로,36.344546,127.379309,40,5,,4.5,4,1,8,N,경사로,,,,1993-01-01, ,보통,제한없음,,정기점검,2019-06-21,대전광역시 서구청,2020-06-30,3660000,대전광역시 서구
만년보도육교,지방도,57,대덕대로,대전광역시 서구 대덕대로,36.368342,127.379393,43.1,7,,4.5,4,1,11,Y,경사로,,,,1996-01-01, ,보통,제한없음,,정기점검,2019-06-21,대전광역시 서구청,2020-06-30,3660000,대전광역시 서구
큰마을보도육교,일반국도,0,계룡로,대전광역시 서구 계룡로,36.344976,127.379829,51.3,5,,4.5,4,1,13,Y,"경사로, 엘리베이터",,,,1996-01-01, ,보통,제한없음,,정기점검,2019-06-21,대전광역시 서구청,2020-06-30,3660000,대전광역시 서구
서부초보도육교,구도,0,동서대로,대전광역시 서구 동서대로,36.334356,127.369767,40.6,5,,4.5,3,1,13,Y,경사로,,,,1997-01-01, ,보통,제한없음,,정기점검,2019-06-21,대전광역시 서구청,2020-06-30,3660000,대전광역시 서구
내동초교보도육교,구도,0,동서대로,대전광역시 서구 동서대로,36.329868,127.379037,40,5,,4.5,4,1,10,N,경사로,,,,1998-01-01, ,양호,제한없음,,정기점검,2019-06-21,대전광역시 서구청,2020-06-30,3660000,대전광역시 서구
신선보도육교,구도,0,관저로,대전광역시 서구 관저로,36.298887,127.332167,32,5,,4.5,4,1,18,Y,경사로,,,,1999-01-01, ,미흡,제한없음,,정기점검,2019-06-21,대전광역시 서구청,2020-06-30,3660000,대전광역시 서구
구봉보도육교,구도,0,구봉로,대전광역시 서구 구봉로,36.296252,127.331354,27,5,,4.5,4,1,10,Y,경사로,,,,1999-01-01, ,미흡,제한없음,,정기점검,2019-06-21,대전광역시 서구청,2020-06-30,3660000,대전광역시 서구
가수원역보도육교,구도,0,벌곡로,대전광역시 서구 벌곡로,36.299176,127.356562,97.5,4.5,,0,2,1,7,N,없음,,,,1984-01-01, ,미흡,제한없음,,정기점검,2019-06-21,대전광역시 서구청,2020-06-30,3660000,대전광역시 서구
대신고보도육교,구도,0,대신2길,대전광역시 서구 대신2길,36.311132,127.379957,46,4.5,,0,6,1.5,4,N,없음,,,,1968-01-01, ,양호,제한없음,,정기점검,2019-06-21,대전광역시 서구청,2020-06-30,3660000,대전광역시 서구
관저보도육교,일반국도,0,계백로,대전광역시 서구 계백로,36.302835,127.342686,53,6.1,,4.5,4,0.88,18,Y,경사로,,,,2002-08-31, ,보통,제한없음,,정기점검,2019-06-21,대전광역시 서구청,2020-06-30,3660000,대전광역시 서구
월평초교보도육교,구도,0,갑천도시고속도로,대전광역시 서구 갑천도시고속도로,36.356344,127.357099,45.1,5,,4.5,5,1,15,Y,경사로,,,,2004-01-01, ,양호,제한없음,,정기점검,2019-06-21,대전광역시 서구청,2020-06-30,3660000,대전광역시 서구
느리울보도육교,구도,0,구봉로,대전광역시 서구 구봉로,36.297296,127.343474,55,5.5,,4.5,2.4,1,19,Y,경사로,,,,2004-01-01, ,양호,제한없음,,정기점검,2019-06-21,대전광역시 서구청,2020-06-30,3660000,대전광역시 서구
매화보도교,구도,0,기성초교길,대전광역시 서구 기성초교길,36.250063,127.340622,61.4,4.5,,0,2.5,1.2,,N,없음,,,,2012-01-01, ,양호,제한없음,,정기점검,2019-06-21,대전광역시 서구청,2020-06-30,3660000,대전광역시 서구
가수원보도육교,일반국도,0,계백로,대전광역시 서구 계백로,36.307448,127.350991,45.3,4.8,,4.5,4,1.52,,Y,엘리베이터,,,,2011-06-30, ,양호,제한없음,,정기점검,2019-06-21,대전광역시 서구청,2020-06-30,3660000,대전광역시 서구
용소보도육교,구도,0,원도안로,대전광역시 서구 원도안로,36.317019,127.345313,29,5,,5,5,1.1,,Y,엘리베이터,,,,2011-06-30, ,양호,제한없음,,정기점검,2019-06-21,대전광역시 서구청,2020-06-30,3660000,대전광역시 서구
옥녀봉보도육교,구도,0,도안동로,대전광역시 서구 도안동로,36.332063,127.346418,70,5.9,,4.5,6,1.1,,Y,경사로,,,,2011-06-30, ,양호,제한없음,,정기점검,2019-06-21,대전광역시 서구청,2020-06-30,3660000,대전광역시 서구
선암보도육교,구도,0,구봉로,대전광역시 서구 구봉로,36.299297,127.336078,47.5,5,,4.5,4,1.1,,Y,엘리베이터,,,,2013-04-30, ,양호,제한없음,,정기점검,2019-06-21,대전광역시 서구청,2020-06-30,3660000,대전광역시 서구
